"금연구역명",금연구역범위상세,시도명,시군구명,금연구역구분,금연구역지정근거명,금연구역면적,위반과태료,위반신고전화번호,소재지도로명주소,소재지지번주소,관리기관명,위도,경도,데이터기준일자
"압구정중학교",출입문으로부터 직선거리 50m까지,서울특별시,강남구,학교절대보호구역,서울특별시 강남구 금연환경 조성 및 간접흡연 피해방지 조례 제5조,,100000,02-3423-7115,서울특별시 강남구 압구정로 225,서울특별시 강남구 압구정동 471,서울특별시 강남구청,37.519296,127.024318,2017-11-17
"언북중학교",출입문으로부터 직선거리 50m까지,서울특별시,강남구,학교절대보호구역,서울특별시 강남구 금연환경 조성 및 간접흡연 피해방지 조례 제5조,,100000,02-3423-7115,서울특별시 강남구 도산대로38길 27,서울특별시 강남구 논현동 69,서울특별시 강남구청,37.514320,127.037649,2017-11-17
"언주중학교",출입문으로부터 직선거리 50m까지,서울특별시,강남구,학교절대보호구역,서울특별시 강남구 금연환경 조성 및 간접흡연 피해방지 조례 제5조,,100000,02-3423-7115,서울특별시 강남구 선릉로116길 57,서울특별시 강남구 삼성동 28,서울특별시 강남구청,37.495687,127.040324,2017-11-17
"역삼중학교",출입문으로부터 직선거리 50m까지,서울특별시,강남구,학교절대보호구역,서울특별시 강남구 금연환경 조성 및 간접흡연 피해방지 조례 제5조,,100000,02-3423-7115,서울특별시 강남구 도곡로43길 10,서울특별시 강남구 역삼동 767-20,서울특별시 강남구청,37.487958,127.027170,2017-11-17
"은성중학교",출입문으로부터 직선거리 50m까지,서울특별시,강남구,학교절대보호구역,서울특별시 강남구 금연환경 조성 및 간접흡연 피해방지 조례 제5조,,100000,02-3423-7115,서울특별시 강남구 남부순환로359길 36,서울특별시 강남구 도곡동 938-10,서울특별시 강남구청,37.488335,127.069866,2017-11-17
"중동중학교",출입문으로부터 직선거리 50m까지,서울특별시,강남구,학교절대보호구역,서울특별시 강남구 금연환경 조성 및 간접흡연 피해방지 조례 제5조,,100000,02-3423-7115,서울특별시 강남구 일원로8길 37,서울특별시 강남구 일원2동 692,서울특별시 강남구청,37.501770,127.038884,2017-11-17
"진선여자중학교",출입문으로부터 직선거리 50m까지,서울특별시,강남구,학교절대보호구역,서울특별시 강남구 금연환경 조성 및 간접흡연 피해방지 조례 제5조,,100000,02-3423-7115,서울특별시 강남구 선릉로85길 27,서울특별시 강남구 선릉로85길 27,서울특별시 강남구청,37.528596,127.036678,2017-11-17
"청담중학교",출입문으로부터 직선거리 50m까지,서울특별시,강남구,학교절대보호구역,서울특별시 강남구 금연환경 조성 및 간접흡연 피해방지 조례 제5조,,100000,02-3423-7115,서울특별시 강남구 압구정로61길 36,서울특별시 강남구 청담동 143,서울특별시 강남구청,37.504967,127.053311,2017-11-17
"휘문중학교",출입문으로부터 직선거리 50m까지,서울특별시,강남구,학교절대보호구역,서울특별시 강남구 금연환경 조성 및 간접흡연 피해방지 조례 제5조,,100000,02-3423-7115,서울특별시 강남구 역삼로 541,서울특별시 강남구 대치동 952-1,서울특별시 강남구청,37.475994,127.042858,2017-11-17
"국악중학교",출입문으로부터 직선거리 50m까지,서울특별시,강남구,학교절대보호구역,서울특별시 강남구 금연환경 조성 및 간접흡연 피해방지 조례 제5조,,100000,02-3423-7115,서울특별시 강남구 개포로22길 65,서울특별시 강남구 개포동 1272,서울특별시 강남구청,37.484694,127.050847,2017-11-17
"개포고등학교",출입문으로부터 직선거리 50m까지,서울특별시,강남구,학교절대보호구역,서울특별시 강남구 금연환경 조성 및 간접흡연 피해방지 조례 제5조,,100000,02-3423-7115,서울특별시 강남구 개포로 402,서울특별시 강남구 개포동 173번지,서울특별시 강남구청,37.516386,127.045645,2017-11-17
"경기고등학교",출입문으로부터 직선거리 50m까지,서울특별시,강남구,학교절대보호구역,서울특별시 강남구 금연환경 조성 및 간접흡연 피해방지 조례 제5조,,100000,02-3423-7115,서울특별시 강남구 영동대로 643,서울특별시 강남구 삼성동 74번지,서울특별시 강남구청,37.486840,127.057339,2017-11-17
"(주)남서울가스",영업허가 면적 경계선까지,서울특별시,강남구,가스충전소,서울특별시 강남구 금연환경 조성 및 간접흡연 피해방지 조례 제5조,,100000,02-3423-7115,서울특별시 강남구 남부순환로 3154,서울특별시 강남구 남부순환로 3154(대치동 21-1),서울특별시 강남구청,37.490532,127.027013,2017-11-17
"(주)진양가스",영업허가 면적 경계선까지,서울특별시,강남구,가스충전소,서울특별시 강남구 금연환경 조성 및 간접흡연 피해방지 조례 제5조,,100000,02-3423-7115,서울특별시 강남구 도곡로 142,서울특별시 강남구 도곡로 142(도곡동 552-5),서울특별시 강남구청,37.513647,127.022591,2017-11-17
"(주)상현상사",영업허가 면적 경계선까지,서울특별시,강남구,가스충전소,서울특별시 강남구 금연환경 조성 및 간접흡연 피해방지 조례 제5조,,100000,02-3423-7115,서울특별시 강남구 학동로 204,서울특별시 강남구 학동로 204(논현동 207),서울특별시 강남구청,37.499316,127.069335,2017-11-17
"개포개나리공원",시설전체,서울특별시,강남구,공원,서울특별시 강남구 금연환경 조성 및 간접흡연 피해방지 조례 제5조,1501,100000,02-3423-7115,서울특별시 강남구 영동대로4길 17,서울특별시 강남구 일원동 612,서울특별시 강남구청,37.490611,127.056816,2017-11-17
"개포은행나무공원",시설전체,서울특별시,강남구,공원,서울특별시 강남구 금연환경 조성 및 간접흡연 피해방지 조례 제5조,1642,100000,02-3423-7115,서울특별시 강남구 포이동 220,서울특별시 강남구 포이동 220,서울특별시 강남구청,37.400236,127.108574,2017-11-17
"개포목련공원",시설전체,서울특별시,강남구,공원,서울특별시 강남구 금연환경 조성 및 간접흡연 피해방지 조례 제5조,1639,100000,02-3423-7115,서울특별시 강남구 포이동 176,서울특별시 강남구 포이동 176,서울특별시 강남구청,37.500546,126.646093,2017-11-17
"일원은행나무공원",시설전체,서울특별시,강남구,공원,서울특별시 강남구 금연환경 조성 및 간접흡연 피해방지 조례 제5조,1500,100000,02-3423-7115,서울특별시 강남구 개포로110길 15,서울특별시 강남구 일원동 615-2,서울특별시 강남구청,37.491984,127.059459,2017-11-17
"일원목련공원",시설전체,서울특별시,강남구,공원,서울특별시 강남구 금연환경 조성 및 간접흡연 피해방지 조례 제5조,1614,100000,02-3423-7115,서울특별시 강남구 양재대로47길 22,서울특별시 강남구 일원동 658,서울특별시 강남구청,37.491413,127.068053,2017-11-17
"일원까치공원",시설전체,서울특별시,강남구,공원,서울특별시 강남구 금연환경 조성 및 간접흡연 피해방지 조례 제5조,1476,100000,02-3423-7115,서울특별시 강남구 양재대로55길 14,서울특별시 강남구 일원동 712-4,서울특별시 강남구청,37.492042,127.070664,2017-11-17
"궁마을공원",시설전체,서울특별시,강남구,공원,서울특별시 강남구 금연환경 조성 및 간접흡연 피해방지 조례 제5조,306,100000,02-3423-7115,서울특별시 강남구 광평로42길 18,서울특별시 강남구 수서동 465-15,서울특별시 강남구청,37.484813,127.081892,2017-11-17
"예지공원",시설전체,서울특별시,강남구,공원,서울특별시 강남구 금연환경 조성 및 간접흡연 피해방지 조례 제5조,1536,100000,02-3423-7115,서울특별시 강남구 개포로 605,서울특별시 강남구 개포동 12-7,서울특별시 강남구청,37.491935,127.055651,2017-11-17
"한마음공원",시설전체,서울특별시,강남구,공원,서울특별시 강남구 금연환경 조성 및 간접흡연 피해방지 조례 제5조,2488,100000,02-3423-7115,서울특별시 강남구 개포로109길 69,서울특별시 강남구 개포동 12-3,서울특별시 강남구청,37.496118,127.075783,2017-11-17
"초록나라어린이집",건축물경계로부터 10m까지,서울특별시,강남구,어린이집,서울특별시 강남구 금연환경 조성 및 간접흡연 피해방지 조례 제5조,,100000,02-3423-7115,서울특별시 강남구 강남대로124길22논현1동161-5 2층,서울특별시 강남구 강남대로124길22논현1동161-5 2층,서울특별시 강남구청,37.509117,127.007073,2017-11-17
"세곡연두어린이집",건축물경계로부터 10m까지,서울특별시,강남구,어린이집,서울특별시 강남구 금연환경 조성 및 간접흡연 피해방지 조례 제5조,,100000,02-3423-7115,서울특별시 강남구 자곡로21,서울특별시 강남구 자곡로21,서울특별시 강남구청,37.470482,127.088766,2017-11-17
"세곡푸르지오어린이집",건축물경계로부터 10m까지,서울특별시,강남구,어린이집,서울특별시 강남구 금연환경 조성 및 간접흡연 피해방지 조례 제5조,,100000,02-3423-7115,서울특별시 강남구 자곡로 21,서울특별시 강남구 자곡로21 LH 푸르지오아파트 단지내,서울특별시 강남구청,37.512425,127.036787,2017-11-17
"수연어린이집",건축물경계로부터 10m까지,서울특별시,강남구,어린이집,서울특별시 강남구 금연환경 조성 및 간접흡연 피해방지 조례 제5조,,100000,02-3423-7115,서울특별시 강남구 봉은사로59길 22,서울특별시 강남구 봉은사로59길 22,서울특별시 강남구청,37.499453,127.031127,2017-11-17
"신한마리오어린이집",건축물경계로부터 10m까지,서울특별시,강남구,어린이집,서울특별시 강남구 금연환경 조성 및 간접흡연 피해방지 조례 제5조,,100000,02-3423-7115,서울특별시 강남구 테헤란로30길 27,서울특별시 강남구 테헤란로 30길 27,서울특별시 강남구청,37.499684,126.759699,2017-11-17
"예다솜어린이집",건축물경계로부터 10m까지,서울특별시,강남구,어린이집,서울특별시 강남구 금연환경 조성 및 간접흡연 피해방지 조례 제5조,,100000,02-3423-7115,서울특별시 강남구 헌릉로571길 20,서울특별시 강남구 헌릉로571길 20,서울특별시 강남구청,37.493766,127.074270,2017-11-17
"아이트라움어린이집",건축물경계로부터 10m까지,서울특별시,강남구,어린이집,서울특별시 강남구 금연환경 조성 및 간접흡연 피해방지 조례 제5조,,100000,02-3423-7115,서울특별시 강남구 개포로124길 13,서울특별시 강남구 개포로124길 13,서울특별시 강남구청,37.494891,127.047763,2017-11-17
"이화유치원",건축물경계로부터 10m까지,서울특별시,강남구,유치원,서울특별시 강남구 금연환경 조성 및 간접흡연 피해방지 조례 제5조,,100000,02-3423-7115,"서울특별시 강남구 개포로110길 15 (일원동, 우성7차아파트)",서울특별시 강남구 개포동 12 대치1차 APT내(內),서울특별시 강남구청,37.493964,127.057588,2017-11-17
"성요셉유치원",건축물경계로부터 10m까지,서울특별시,강남구,유치원,서울특별시 강남구 금연환경 조성 및 간접흡연 피해방지 조례 제5조,,100000,02-3423-7115,"서울특별시 강남구 개포로109길 5 (개포동, 대치아파트)",서울특별시 강남구 청담동 117,서울특별시 강남구청,37.526825,127.030728,2017-11-17
"오즈의마법사유치원",건축물경계로부터 10m까지,서울특별시,강남구,유치원,서울특별시 강남구 금연환경 조성 및 간접흡연 피해방지 조례 제5조,,100000,02-3423-7115,"서울특별시 강남구 개포로109길 9 (개포동, 대치아파트)",서울특별시 강남구 세곡동 171번지,서울특별시 강남구청,37.463927,127.088583,2017-11-17
"세명초등학교병설유치원",건축물경계로부터 10m까지,서울특별시,강남구,유치원,서울특별시 강남구 금연환경 조성 및 간접흡연 피해방지 조례 제5조,,100000,02-3423-7115,"서울특별시 강남구 개포로109길 21 (개포동, 대청아파트)",서울특별시 강남구 세곡동 464-9번지,서울특별시 강남구청,37.468412,127.073473,2017-11-17
"대왕초등학교병설유치원",건축물경계로부터 10m까지,서울특별시,강남구,유치원,서울특별시 강남구 금연환경 조성 및 간접흡연 피해방지 조례 제5조,,100000,02-3423-7115,서울특별시 강남구 헌릉로 618길 8번지,서울특별시 강남구 헌릉로 618길 8번지,서울특별시 강남구청,37.463551,127.103969,2017-11-17
"서울개원초등학교병설유치원",건축물경계로부터 10m까지,서울특별시,강남구,유치원,서울특별시 강남구 금연환경 조성 및 간접흡연 피해방지 조례 제5조,,100000,02-3423-7115,"서울특별시 강남구 선릉로 29 (개포동,개원초등학교)","서울특별시 강남구 서울특별시 강남구 선릉로 29 (개포동,개원초등학교)",서울특별시 강남구청,37.499325,127.052739,2017-11-17
"서울도곡초등학교병설유치원",건축물경계로부터 10m까지,서울특별시,강남구,유치원,서울특별시 강남구 금연환경 조성 및 간접흡연 피해방지 조례 제5조,,100000,02-3423-7115,"서울특별시 강남구 강남구 선릉로64길 33(대치동,도곡초등학교)","서울특별시 강남구 강남구 선릉로64길 33(대치동,도곡초등학교)",서울특별시 강남구청,37.523116,127.022059,2017-11-17
"서울신구초등학교병설유치원",건축물경계로부터 10m까지,서울특별시,강남구,유치원,서울특별시 강남구 금연환경 조성 및 간접흡연 피해방지 조례 제5조,,100000,02-3423-7115,"서울특별시 강남구 강남구 압구정로18길 28(신사동,신구초등학교)","서울특별시 강남구 강남구 압구정로18길 28(신사동,신구초등학교)",서울특별시 강남구청,37.486661,127.034972,2017-11-17
"서울언주초등학교병설유치원",건축물경계로부터 10m까지,서울특별시,강남구,유치원,서울특별시 강남구 금연환경 조성 및 간접흡연 피해방지 조례 제5조,,100000,02-3423-7115,서울특별시 강남구 강남구 남부순환로 363길 19 서울언주초등학교병설유치원,서울특별시 강남구 강남구 남부순환로 363길 19 서울언주초등학교병설유치원,서울특별시 강남구청,37.486698,127.019651,2017-11-17
"청담몬테소리유치원",건축물경계로부터 10m까지,서울특별시,강남구,유치원,서울특별시 강남구 금연환경 조성 및 간접흡연 피해방지 조례 제5조,,100000,02-3423-7115,"서울특별시 강남구 강남구 학동로67길 15(청담동,장우빌딩)","서울특별시 강남구 강남구 학동로67길 15(청담동,장우빌딩)",서울특별시 강남구청,37.486846,126.967121,2017-11-17
"언주역",언주역 6번출구로부터 10미터 이내,서울특별시,강남구,지하철역,서울특별시 강남구 금연환경 조성 및 간접흡연 피해방지 조례 제5조,,100000,02-3423-7115,서울특별시 강남구 봉은사로 201,서울특별시 강남구 논현동 279-165,서울특별시 강남구청,37.507289,127.033828,2017-11-17
"언주역",언주역 7번출구로부터 10미터 이내,서울특별시,강남구,지하철역,서울특별시 강남구 금연환경 조성 및 간접흡연 피해방지 조례 제5조,,100000,02-3423-7115,서울특별시 강남구 봉은사로 201,서울특별시 강남구 논현동 279-165,서울특별시 강남구청,37.507289,127.033828,2017-11-17
"언주역",언주역 8번출구로부터 10미터 이내,서울특별시,강남구,지하철역,서울특별시 강남구 금연환경 조성 및 간접흡연 피해방지 조례 제5조,,100000,02-3423-7115,서울특별시 강남구 봉은사로 201,서울특별시 강남구 논현동 279-165,서울특별시 강남구청,37.507289,127.033828,2017-11-17
"일원역",일원역 1번출구로부터 10미터 이내,서울특별시,강남구,지하철역,서울특별시 강남구 금연환경 조성 및 간접흡연 피해방지 조례 제5조,,100000,02-3423-7115,서울특별시 강남구 일원로 121,서울특별시 강남구 일원동 717,서울특별시 강남구청,37.483835,127.084043,2017-11-17
"(주)삼진에너지",영업허가 면적 경계선까지,서울특별시,강남구,가스충전소,서울특별시 강남구 금연환경 조성 및 간접흡연 피해방지 조례 제5조,,100000,02-3423-7115,서울특별시 강남구 남부순환로 3179,서울특별시 강남구 남부순환로 3179(대치동 27-15),서울특별시 강남구청,37.482812,127.096260,2017-11-17
"(주)수서에너지",영업허가 면적 경계선까지,서울특별시,강남구,가스충전소,서울특별시 강남구 금연환경 조성 및 간접흡연 피해방지 조례 제5조,,100000,02-3423-7115,서울특별시 강남구 밤고개로 127,서울특별시 강남구 밤고개로 127(자곡동204-1),서울특별시 강남구청,37.476346,127.096710,2017-11-17
"개인택시조합복지강남제2충전소",영업허가 면적 경계선까지,서울특별시,강남구,가스충전소,서울특별시 강남구 금연환경 조성 및 간접흡연 피해방지 조례 제5조,,100000,02-3423-7115,서울특별시 강남구 밤고개로 200,서울특별시 강남구 밤고개로 200(자곡동 373-1),서울특별시 강남구청,37.479020,127.056932,2017-11-17
"(주)도선제이엔디아이엔씨",영업허가 면적 경계선까지,서울특별시,강남구,가스충전소,서울특별시 강남구 금연환경 조성 및 간접흡연 피해방지 조례 제5조,,100000,02-3423-7115,서울특별시 강남구 양재대로 486,서울특별시 강남구 양재대로 486(개포동 565-3),서울특별시 강남구청,37.481293,127.049902,2017-11-17
"강남대로 동측",신 논현역 5번 출구~강남역 12번 출구사이 보도,서울특별시,강남구,거리,서울특별시 강남구 금연환경 조성 및 간접흡연 피해방지 조례 제5조,870,100000,02-3423-7115,서울특별시 강남구 강남대로,서울특별시 강남구 강남대로,서울특별시 강남구청,37.470688,127.067571,2017-11-17
"강남대로","강남역 1번 출구?캠브리지 빌딩, 강남역 1번 출구?우성아파트 사거리 서울빌딩",서울특별시,강남구,거리,서울특별시 강남구 금연환경 조성 및 간접흡연 피해방지 조례 제5조,697,100000,02-3423-7115,서울특별시 강남구 강남대로,서울특별시 강남구 강남대로,서울특별시 강남구청,37.492117,127.011862,2017-11-17
"대모산도시자연공원",시설전체,서울특별시,강남구,공원,서울특별시 강남구 금연환경 조성 및 간접흡연 피해방지 조례 제5조,2277252,100000,02-3423-7115,서울특별시 강남구 광평로10길 30-71,서울특별시 강남구 일원동 산52-1 일대,서울특별시 강남구청,37.478884,127.056785,2017-11-17
"단비어린이집",건축물경계로부터 10m까지,서울특별시,강남구,어린이집,서울특별시 강남구 금연환경 조성 및 간접흡연 피해방지 조례 제5조,,100000,02-3423-7115,서울특별시 강남구 언주로6길 10,서울특별시 강남구 언주로6길 10,서울특별시 강남구청,37.477808,127.040609,2017-11-17
"미래클어린이집",건축물경계로부터 10m까지,서울특별시,강남구,어린이집,서울특별시 강남구 금연환경 조성 및 간접흡연 피해방지 조례 제5조,,100000,02-3423-7115,서울특별시 강남구 선릉로 7 23동 108호,서울특별시 강남구 선릉로 7 23동 108호,서울특별시 강남구청,37.478366,127.043974,2017-11-17
"보명어린이집",건축물경계로부터 10m까지,서울특별시,강남구,어린이집,서울특별시 강남구 금연환경 조성 및 간접흡연 피해방지 조례 제5조,,100000,02-3423-7115,서울특별시 강남구 선릉로 7,서울특별시 강남구 선릉로 7,서울특별시 강남구청,37.478366,127.043974,2017-11-17
"늘푸른어린이집",건축물경계로부터 10m까지,서울특별시,강남구,어린이집,서울특별시 강남구 금연환경 조성 및 간접흡연 피해방지 조례 제5조,,100000,02-3423-7115,서울특별시 강남구 개포로128길 19,서울특별시 강남구 개포로128길 19,서울특별시 강남구청,37.493811,127.066370,2017-11-17
"대청어린이집",건축물경계로부터 10m까지,서울특별시,강남구,어린이집,서울특별시 강남구 금연환경 조성 및 간접흡연 피해방지 조례 제5조,,100000,02-3423-7115,서울특별시 강남구 양재대로37길 19,서울특별시 강남구 양재대로37길 19,서울특별시 강남구청,37.490851,127.066004,2017-11-17
"빛나 어린이집",건축물경계로부터 10m까지,서울특별시,강남구,어린이집,서울특별시 강남구 금연환경 조성 및 간접흡연 피해방지 조례 제5조,,100000,02-3423-7115,서울특별시 강남구 양재대로55길10 121동 105호,서울특별시 강남구 양재대로55길10 121동 105호,서울특별시 강남구청,37.492613,127.072704,2017-11-17
"아카데미어린이집",건축물경계로부터 10m까지,서울특별시,강남구,어린이집,서울특별시 강남구 금연환경 조성 및 간접흡연 피해방지 조례 제5조,,100000,02-3423-7115,서울특별시 강남구 개포로124길 13,서울특별시 강남구 개포로124길 13,서울특별시 강남구청,37.493748,127.065515,2017-11-17
"엄마손몬테소리어린이집",건축물경계로부터 10m까지,서울특별시,강남구,어린이집,서울특별시 강남구 금연환경 조성 및 간접흡연 피해방지 조례 제5조,,100000,02-3423-7115,서울특별시 강남구 일원로5길 19,서울특별시 강남구 일원로5길 19,서울특별시 강남구청,37.491324,127.064787,2017-11-17
"래미안도곡카운티어린이집",건축물경계로부터 10m까지,서울특별시,강남구,어린이집,서울특별시 강남구 금연환경 조성 및 간접흡연 피해방지 조례 제5조,,100000,02-3423-7115,서울특별시 강남구 선릉로 227,서울특별시 강남구 선릉로227 래미안도곡카운티아파트내,서울특별시 강남구청,37.512819,127.033307,2017-11-17
"이레어린이집",건축물경계로부터 10m까지,서울특별시,강남구,어린이집,서울특별시 강남구 금연환경 조성 및 간접흡연 피해방지 조례 제5조,,100000,02-3423-7115,서울특별시 강남구 봉은사로51길 42,서울특별시 강남구 봉은사로 51길 42,서울특별시 강남구청,37.473710,127.042186,2017-11-17
"조이 빅스맘 어린이집",건축물경계로부터 10m까지,서울특별시,강남구,어린이집,서울특별시 강남구 금연환경 조성 및 간접흡연 피해방지 조례 제5조,,100000,02-3423-7115,서울특별시 강남구 논현로6길 19,서울특별시 강남구 논현로 6길 19,서울특별시 강남구청,37.488023,127.065469,2017-11-17
"그림어린이집",건축물경계로부터 10m까지,서울특별시,강남구,어린이집,서울특별시 강남구 금연환경 조성 및 간접흡연 피해방지 조례 제5조,,100000,02-3423-7115,서울특별시 강남구 삼성로 14,서울특별시 강남구 삼성로14 개포동 주공아파트내,서울특별시 강남구청,37.489084,127.092253,2017-11-17
"다솜어린이집",건축물경계로부터 10m까지,서울특별시,강남구,어린이집,서울특별시 강남구 금연환경 조성 및 간접흡연 피해방지 조례 제5조,,100000,02-3423-7115,서울특별시 강남구 광평로51길 27,서울특별시 강남구 광평로51길 27,서울특별시 강남구청,37.489150,127.092253,2017-11-17
"동심에코비어린이집",건축물경계로부터 10m까지,서울특별시,강남구,어린이집,서울특별시 강남구 금연환경 조성 및 간접흡연 피해방지 조례 제5조,,100000,02-3423-7115,서울특별시 강남구 양재대로55길 10,서울특별시 강남구 양재대로 55길 10 수서아파트내,서울특별시 강남구청,37.543142,127.137192,2017-11-17
"라온어린이집",건축물경계로부터 10m까지,서울특별시,강남구,어린이집,서울특별시 강남구 금연환경 조성 및 간접흡연 피해방지 조례 제5조,,100000,02-3423-7115,서울특별시 강남구 헌릉로20 강남LH1단지내,서울특별시 강남구 헌릉로20 강남LH1단지내,서울특별시 강남구청,37.477014,127.093090,2017-11-17
"마술피리어린이집",건축물경계로부터 10m까지,서울특별시,강남구,어린이집,서울특별시 강남구 금연환경 조성 및 간접흡연 피해방지 조례 제5조,,100000,02-3423-7115,서울특별시 강남구 자곡로 21,서울특별시 강남구 자곡로 21,서울특별시 강남구청,37.492357,127.069369,2017-11-17
"몽실어린이집",건축물경계로부터 10m까지,서울특별시,강남구,어린이집,서울특별시 강남구 금연환경 조성 및 간접흡연 피해방지 조례 제5조,,100000,02-3423-7115,서울특별시 강남구 개포로110길 15,서울특별시 강남구 개포로110길 15 우성7차아파트 내,서울특별시 강남구청,37.477014,127.093090,2017-11-17
"베베클럽어린이집",건축물경계로부터 10m까지,서울특별시,강남구,어린이집,서울특별시 강남구 금연환경 조성 및 간접흡연 피해방지 조례 제5조,,100000,02-3423-7115,서울특별시 강남구 자곡로 21,서울특별시 강남구 자곡로 21,서울특별시 강남구청,37.460276,127.099161,2017-11-17
"서이어린이집",건축물경계로부터 10m까지,서울특별시,강남구,어린이집,서울특별시 강남구 금연환경 조성 및 간접흡연 피해방지 조례 제5조,,100000,02-3423-7115,서울특별시 강남구 헌릉로571길 20,서울특별시 강남구 헌릉로 571길 20 강남LH1단지내,서울특별시 강남구청,37.467859,127.119301,2017-11-17
"매봉역",매봉역 1번출구로부터 10미터 이내,서울특별시,강남구,지하철역,서울특별시 강남구 금연환경 조성 및 간접흡연 피해방지 조례 제5조,,100000,02-3423-7115,서울특별시 강남구 남부순환로 2744,서울특별시 강남구 도곡동 179-2,서울특별시 강남구청,37.486771,127.046290,2017-11-17
"매봉역",매봉역 2번출구로부터 10미터 이내,서울특별시,강남구,지하철역,서울특별시 강남구 금연환경 조성 및 간접흡연 피해방지 조례 제5조,,100000,02-3423-7115,서울특별시 강남구 남부순환로 2744,서울특별시 강남구 도곡동 179-2,서울특별시 강남구청,37.486771,127.046290,2017-11-17
"매봉역",매봉역 3번출구로부터 10미터 이내,서울특별시,강남구,지하철역,서울특별시 강남구 금연환경 조성 및 간접흡연 피해방지 조례 제5조,,100000,02-3423-7115,서울특별시 강남구 남부순환로 2744,서울특별시 강남구 도곡동 179-2,서울특별시 강남구청,37.486771,127.046290,2017-11-17
"매봉역",매봉역 4번출구로부터 10미터 이내,서울특별시,강남구,지하철역,서울특별시 강남구 금연환경 조성 및 간접흡연 피해방지 조례 제5조,,100000,02-3423-7115,서울특별시 강남구 남부순환로 2744,서울특별시 강남구 도곡동 179-2,서울특별시 강남구청,37.486771,127.046290,2017-11-17
"일원역",일원역 2번출구로부터 10미터 이내,서울특별시,강남구,지하철역,서울특별시 강남구 금연환경 조성 및 간접흡연 피해방지 조례 제5조,,100000,02-3423-7115,서울특별시 강남구 일원로 121,서울특별시 강남구 일원동 717,서울특별시 강남구청,37.483835,127.084043,2017-11-17
"일원역",일원역 3번출구로부터 10미터 이내,서울특별시,강남구,지하철역,서울특별시 강남구 금연환경 조성 및 간접흡연 피해방지 조례 제5조,,100000,02-3423-7115,서울특별시 강남구 일원로 121,서울특별시 강남구 일원동 717,서울특별시 강남구청,37.483835,127.084043,2017-11-17
"일원역",일원역 4번출구로부터 10미터 이내,서울특별시,강남구,지하철역,서울특별시 강남구 금연환경 조성 및 간접흡연 피해방지 조례 제5조,,100000,02-3423-7115,서울특별시 강남구 일원로 121,서울특별시 강남구 일원동 717,서울특별시 강남구청,37.483835,127.084043,2017-11-17
"일원역",일원역 5번출구로부터 10미터 이내,서울특별시,강남구,지하철역,서울특별시 강남구 금연환경 조성 및 간접흡연 피해방지 조례 제5조,,100000,02-3423-7115,서울특별시 강남구 일원로 121,서울특별시 강남구 일원동 717,서울특별시 강남구청,37.483835,127.084043,2017-11-17
"일원역",일원역 6번출구로부터 10미터 이내,서울특별시,강남구,지하철역,서울특별시 강남구 금연환경 조성 및 간접흡연 피해방지 조례 제5조,,100000,02-3423-7115,서울특별시 강남구 일원로 121,서울특별시 강남구 일원동 717,서울특별시 강남구청,37.483835,127.084043,2017-11-17
"일원역",일원역 7번출구로부터 10미터 이내,서울특별시,강남구,지하철역,서울특별시 강남구 금연환경 조성 및 간접흡연 피해방지 조례 제5조,,100000,02-3423-7115,서울특별시 강남구 일원로 121,서울특별시 강남구 일원동 717,서울특별시 강남구청,37.483835,127.084043,2017-11-17
"청담역",청담역 1번출구로부터 10미터 이내,서울특별시,강남구,지하철역,서울특별시 강남구 금연환경 조성 및 간접흡연 피해방지 조례 제5조,,100000,02-3423-7115,서울특별시 강남구 학동로 508,서울특별시 강남구 청담동 77-76,서울특별시 강남구청,37.519111,127.051894,2017-11-17
"청담역",청담역 2번출구로부터 10미터 이내,서울특별시,강남구,지하철역,서울특별시 강남구 금연환경 조성 및 간접흡연 피해방지 조례 제5조,,100000,02-3423-7115,서울특별시 강남구 학동로 508,서울특별시 강남구 청담동 77-76,서울특별시 강남구청,37.519111,127.051894,2017-11-17
"청담역",청담역 3번출구로부터 10미터 이내,서울특별시,강남구,지하철역,서울특별시 강남구 금연환경 조성 및 간접흡연 피해방지 조례 제5조,,100000,02-3423-7115,서울특별시 강남구 학동로 508,서울특별시 강남구 청담동 77-76,서울특별시 강남구청,37.519111,127.051894,2017-11-17
"청담역",청담역 4번출구로부터 10미터 이내,서울특별시,강남구,지하철역,서울특별시 강남구 금연환경 조성 및 간접흡연 피해방지 조례 제5조,,100000,02-3423-7115,서울특별시 강남구 학동로 508,서울특별시 강남구 청담동 77-76,서울특별시 강남구청,37.519111,127.051894,2017-11-17
"청담역",청담역 5번출구로부터 10미터 이내,서울특별시,강남구,지하철역,서울특별시 강남구 금연환경 조성 및 간접흡연 피해방지 조례 제5조,,100000,02-3423-7115,서울특별시 강남구 학동로 508,서울특별시 강남구 청담동 77-76,서울특별시 강남구청,37.519111,127.051894,2017-11-17
"청담역",청담역 6번출구로부터 10미터 이내,서울특별시,강남구,지하철역,서울특별시 강남구 금연환경 조성 및 간접흡연 피해방지 조례 제5조,,100000,02-3423-7115,서울특별시 강남구 학동로 508,서울특별시 강남구 청담동 77-76,서울특별시 강남구청,37.519111,127.051894,2017-11-17
"청담역",청담역 7번출구로부터 10미터 이내,서울특별시,강남구,지하철역,서울특별시 강남구 금연환경 조성 및 간접흡연 피해방지 조례 제5조,,100000,02-3423-7115,서울특별시 강남구 학동로 508,서울특별시 강남구 청담동 77-76,서울특별시 강남구청,37.519111,127.051894,2017-11-17
"청담역",청담역 8번출구로부터 10미터 이내,서울특별시,강남구,지하철역,서울특별시 강남구 금연환경 조성 및 간접흡연 피해방지 조례 제5조,,100000,02-3423-7115,서울특별시 강남구 학동로 508,서울특별시 강남구 청담동 77-76,서울특별시 강남구청,37.519111,127.051894,2017-11-17
"청담역",청담역 9번출구로부터 10미터 이내,서울특별시,강남구,지하철역,서울특별시 강남구 금연환경 조성 및 간접흡연 피해방지 조례 제5조,,100000,02-3423-7115,서울특별시 강남구 학동로 508,서울특별시 강남구 청담동 77-76,서울특별시 강남구청,37.519111,127.051894,2017-11-17
"선재어린이집",건축물경계로부터 10m까지,서울특별시,강남구,어린이집,서울특별시 강남구 금연환경 조성 및 간접흡연 피해방지 조례 제5조,,100000,02-3423-7115,서울특별시 강남구 삼성로71길 31,서울특별시 강남구 삼성로71길 31,서울특별시 강남구청,37.501448,127.038840,2017-11-17
"일원사임당어린이집",건축물경계로부터 10m까지,서울특별시,강남구,어린이집,서울특별시 강남구 금연환경 조성 및 간접흡연 피해방지 조례 제5조,,100000,02-3423-7115,서울특별시 강남구 개포로 648 동형빌딩101호,서울특별시 강남구 개포로 648 동형빌딩101호,서울특별시 강남구청,37.494740,127.066166,2017-11-17
"자람어린이집",건축물경계로부터 10m까지,서울특별시,강남구,어린이집,서울특별시 강남구 금연환경 조성 및 간접흡연 피해방지 조례 제5조,,100000,02-3423-7115,서울특별시 강남구 일원로5길 29,서울특별시 강남구 일원로5길 29,서울특별시 강남구청,37.491664,127.065427,2017-11-17
"지예어린이집",건축물경계로부터 10m까지,서울특별시,강남구,어린이집,서울특별시 강남구 금연환경 조성 및 간접흡연 피해방지 조례 제5조,,100000,02-3423-7115,서울특별시 강남구 개포로128길 29-7,서울특별시 강남구 개포로128길 29-7,서울특별시 강남구청,37.493289,127.067203,2017-11-17
"청마을어린이집",건축물경계로부터 10m까지,서울특별시,강남구,어린이집,서울특별시 강남구 금연환경 조성 및 간접흡연 피해방지 조례 제5조,,100000,02-3423-7115,서울특별시 강남구 양재대로55길 10 대청복지관내1층,서울특별시 강남구 양재대로55길 10 대청복지관내1층,서울특별시 강남구청,37.492613,127.072704,2017-11-17
"하나어린이집",건축물경계로부터 10m까지,서울특별시,강남구,어린이집,서울특별시 강남구 금연환경 조성 및 간접흡연 피해방지 조례 제5조,,100000,02-3423-7115,서울특별시 강남구 일원로3길 81,서울특별시 강남구 일원로3길 81,서울특별시 강남구청,37.493263,127.068385,2017-11-17
"브니엘어린이집",건축물경계로부터 10m까지,서울특별시,강남구,어린이집,서울특별시 강남구 금연환경 조성 및 간접흡연 피해방지 조례 제5조,,100000,02-3423-7115,"서울특별시 강남구 개포로109길 5 304동 105호, 106호","서울특별시 강남구 개포로109길 5 304동 105호, 106호",서울특별시 강남구청,37.493964,127.057588,2017-11-17
SH공사으뜸어린이집,건축물경계로부터 10m까지,서울특별시,강남구,어린이집,서울특별시 강남구 금연환경 조성 및 간접흡연 피해방지 조례 제5조,,100000,02-3423-7115,서울특별시 강남구 개포로 621 SH공사 14동5호,서울특별시 강남구 개포로 621 SH공사 14동5호,서울특별시 강남구청,37.494147,127.061280,2017-11-17
"강남어린이집",건축물경계로부터 10m까지,서울특별시,강남구,어린이집,서울특별시 강남구 금연환경 조성 및 간접흡연 피해방지 조례 제5조,,100000,02-3423-7115,서울특별시 강남구 개포로 615 강남종합사회복지관1층,서울특별시 강남구 개포로 615 강남종합사회복지관1층,서울특별시 강남구청,37.492618,127.058059,2017-11-17
"개포아이트라움어린이집",건축물경계로부터 10m까지,서울특별시,강남구,어린이집,서울특별시 강남구 금연환경 조성 및 간접흡연 피해방지 조례 제5조,,100000,02-3423-7115,서울특별시 강남구 개포로109길 21 대치2단지내(內),서울특별시 강남구 개포로109길 21 대치2단지내(內),서울특별시 강남구청,37.493964,127.057588,2017-11-17
"목련어린이집",건축물경계로부터 10m까지,서울특별시,강남구,어린이집,서울특별시 강남구 금연환경 조성 및 간접흡연 피해방지 조례 제5조,,100000,02-3423-7115,서울특별시 강남구 개포로 617-8,서울특별시 강남구 개포로 617-8,서울특별시 강남구청,37.494005,127.060225,2017-11-17
"경기여자고등학교",출입문으로부터 직선거리 50m까지,서울특별시,강남구,학교절대보호구역,서울특별시 강남구 금연환경 조성 및 간접흡연 피해방지 조례 제5조,,100000,02-3423-7115,서울특별시 강남구 삼성로 29,서울특별시 강남구 개포 2동 152번지,서울특별시 강남구청,37.495352,127.047739,2017-11-17
"단국대학교사범대학부속고등학교",출입문으로부터 직선거리 50m까지,서울특별시,강남구,학교절대보호구역,서울특별시 강남구 금연환경 조성 및 간접흡연 피해방지 조례 제5조,,100000,02-3423-7115,서울특별시 강남구 도곡로78길 22,서울특별시 강남구 대치동 1013,서울특별시 강남구청,37.490343,127.093868,2017-11-17
"서울세종고등학교",출입문으로부터 직선거리 50m까지,서울특별시,강남구,학교절대보호구역,서울특별시 강남구 금연환경 조성 및 간접흡연 피해방지 조례 제5조,,100000,02-3423-7115,서울특별시 강남구 광평로51길 36,서울특별시 강남구 수서동 711,서울특별시 강남구청,37.490746,127.044582,2017-11-17
"숙명여자고등학교",출입문으로부터 직선거리 50m까지,서울특별시,강남구,학교절대보호구역,서울특별시 강남구 금연환경 조성 및 간접흡연 피해방지 조례 제5조,,100000,02-3423-7115,서울특별시 강남구 남부순환로 2807,서울특별시 강남구 도곡 2동 91번지,서울특별시 강남구청,37.531189,127.024099,2017-11-17
"봉은사역",봉은사역 1번출구로부터 10미터 이내,서울특별시,강남구,지하철역,서울특별시 강남구 금연환경 조성 및 간접흡연 피해방지 조례 제5조,,100000,02-3423-7115,서울특별시 강남구 봉은사로 601,서울특별시 강남구 삼성동 172,서울특별시 강남구청,37.514249,127.060330,2017-11-17
"봉은사역",봉은사역 2번출구로부터 10미터 이내,서울특별시,강남구,지하철역,서울특별시 강남구 금연환경 조성 및 간접흡연 피해방지 조례 제5조,,100000,02-3423-7115,서울특별시 강남구 봉은사로 601,서울특별시 강남구 삼성동 172,서울특별시 강남구청,37.514249,127.060330,2017-11-17
"봉은사역",봉은사역 3번출구로부터 10미터 이내,서울특별시,강남구,지하철역,서울특별시 강남구 금연환경 조성 및 간접흡연 피해방지 조례 제5조,,100000,02-3423-7115,서울특별시 강남구 봉은사로 601,서울특별시 강남구 삼성동 172,서울특별시 강남구청,37.514249,127.060330,2017-11-17
"봉은사역",봉은사역 4번출구로부터 10미터 이내,서울특별시,강남구,지하철역,서울특별시 강남구 금연환경 조성 및 간접흡연 피해방지 조례 제5조,,100000,02-3423-7115,서울특별시 강남구 봉은사로 601,서울특별시 강남구 삼성동 172,서울특별시 강남구청,37.514249,127.060330,2017-11-17
"봉은사역",봉은사역 5번출구로부터 10미터 이내,서울특별시,강남구,지하철역,서울특별시 강남구 금연환경 조성 및 간접흡연 피해방지 조례 제5조,,100000,02-3423-7115,서울특별시 강남구 봉은사로 601,서울특별시 강남구 삼성동 172,서울특별시 강남구청,37.514249,127.060330,2017-11-17
"봉은사역",봉은사역 6번출구로부터 10미터 이내,서울특별시,강남구,지하철역,서울특별시 강남구 금연환경 조성 및 간접흡연 피해방지 조례 제5조,,100000,02-3423-7115,서울특별시 강남구 봉은사로 601,서울특별시 강남구 삼성동 172,서울특별시 강남구청,37.514249,127.060330,2017-11-17
"봉은사역",봉은사역 7번출구로부터 10미터 이내,서울특별시,강남구,지하철역,서울특별시 강남구 금연환경 조성 및 간접흡연 피해방지 조례 제5조,,100000,02-3423-7115,서울특별시 강남구 봉은사로 601,서울특별시 강남구 삼성동 172,서울특별시 강남구청,37.514249,127.060330,2017-11-17
"삼성역",삼성역 1번출구로부터 10미터 이내,서울특별시,강남구,지하철역,서울특별시 강남구 금연환경 조성 및 간접흡연 피해방지 조례 제5조,,100000,02-3423-7115,서울특별시 강남구 테헤란로 538,서울특별시 강남구 삼성동 172-66,서울특별시 강남구청,37.508852,127.063085,2017-11-17
"삼성역",삼성역 2번출구로부터 10미터 이내,서울특별시,강남구,지하철역,서울특별시 강남구 금연환경 조성 및 간접흡연 피해방지 조례 제5조,,100000,02-3423-7115,서울특별시 강남구 테헤란로 538,서울특별시 강남구 삼성동 172-66,서울특별시 강남구청,37.508852,127.063085,2017-11-17
"삼성역",삼성역 3번출구로부터 10미터 이내,서울특별시,강남구,지하철역,서울특별시 강남구 금연환경 조성 및 간접흡연 피해방지 조례 제5조,,100000,02-3423-7115,서울특별시 강남구 테헤란로 538,서울특별시 강남구 삼성동 172-66,서울특별시 강남구청,37.508852,127.063085,2017-11-17
"삼성역",삼성역 4번출구로부터 10미터 이내,서울특별시,강남구,지하철역,서울특별시 강남구 금연환경 조성 및 간접흡연 피해방지 조례 제5조,,100000,02-3423-7115,서울특별시 강남구 테헤란로 538,서울특별시 강남구 삼성동 172-66,서울특별시 강남구청,37.508852,127.063085,2017-11-17
"삼성역",삼성역 5번출구로부터 10미터 이내,서울특별시,강남구,지하철역,서울특별시 강남구 금연환경 조성 및 간접흡연 피해방지 조례 제5조,,100000,02-3423-7115,서울특별시 강남구 테헤란로 538,서울특별시 강남구 삼성동 172-66,서울특별시 강남구청,37.508852,127.063085,2017-11-17
"삼성역",삼성역 6번출구로부터 10미터 이내,서울특별시,강남구,지하철역,서울특별시 강남구 금연환경 조성 및 간접흡연 피해방지 조례 제5조,,100000,02-3423-7115,서울특별시 강남구 테헤란로 538,서울특별시 강남구 삼성동 172-66,서울특별시 강남구청,37.508852,127.063085,2017-11-17
"삼성역",삼성역 7번출구로부터 10미터 이내,서울특별시,강남구,지하철역,서울특별시 강남구 금연환경 조성 및 간접흡연 피해방지 조례 제5조,,100000,02-3423-7115,서울특별시 강남구 테헤란로 538,서울특별시 강남구 삼성동 172-66,서울특별시 강남구청,37.508852,127.063085,2017-11-17
"삼성역",삼성역 8번출구로부터 10미터 이내,서울특별시,강남구,지하철역,서울특별시 강남구 금연환경 조성 및 간접흡연 피해방지 조례 제5조,,100000,02-3423-7115,서울특별시 강남구 테헤란로 538,서울특별시 강남구 삼성동 172-66,서울특별시 강남구청,37.508852,127.063085,2017-11-17
"여명어린이집",건축물경계로부터 10m까지,서울특별시,강남구,어린이집,서울특별시 강남구 금연환경 조성 및 간접흡연 피해방지 조례 제5조,,100000,02-3423-7115,서울특별시 강남구 역삼로67길 11,서울특별시 강남구 역삼로67길 11,서울특별시 강남구청,37.502101,127.035400,2017-11-17
"킹스키즈어린이집",건축물경계로부터 10m까지,서울특별시,강남구,어린이집,서울특별시 강남구 금연환경 조성 및 간접흡연 피해방지 조례 제5조,,100000,02-3423-7115,서울특별시 강남구 도곡로73길 31-1,서울특별시 강남구 도곡로73길 31-1,서울특별시 강남구청,37.499796,127.038718,2017-11-17
"포스코어린이집",건축물경계로부터 10m까지,서울특별시,강남구,어린이집,서울특별시 강남구 금연환경 조성 및 간접흡연 피해방지 조례 제5조,,100000,02-3423-7115,서울특별시 강남구 테헤란로 440,서울특별시 강남구 테헤란로 440,서울특별시 강남구청,37.505739,127.038597,2017-11-17
"아기사랑 어린이집",건축물경계로부터 10m까지,서울특별시,강남구,어린이집,서울특별시 강남구 금연환경 조성 및 간접흡연 피해방지 조례 제5조,,100000,02-3423-7115,서울특별시 강남구 논현로 213 역삼럭키APT101동 109호,서울특별시 강남구 논현로 213 역삼럭키APT101동 109호,서울특별시 강남구청,37.490413,127.022676,2017-11-17
"강남서머힐어린이집",건축물경계로부터 10m까지,서울특별시,강남구,어린이집,서울특별시 강남구 금연환경 조성 및 간접흡연 피해방지 조례 제5조,,100000,02-3423-7115,서울특별시 강남구 남부순환로365길 43,서울특별시 강남구 남부순환로365길 43,서울특별시 강남구청,37.488257,127.022314,2017-11-17
"강남영재어린이집",건축물경계로부터 10m까지,서울특별시,강남구,어린이집,서울특별시 강남구 금연환경 조성 및 간접흡연 피해방지 조례 제5조,,100000,02-3423-7115,서울특별시 강남구 남부순환로365길 42,서울특별시 강남구 남부순환로365길 42,서울특별시 강남구청,37.487272,127.023132,2017-11-17
"도곡사임당어린이집",건축물경계로부터 10m까지,서울특별시,강남구,어린이집,서울특별시 강남구 금연환경 조성 및 간접흡연 피해방지 조례 제5조,,100000,02-3423-7115,서울특별시 강남구 논현로 218 2동 105호,서울특별시 강남구 논현로 218 2동 105호,서울특별시 강남구청,37.490711,127.024602,2017-11-17
"사랑어린이집",건축물경계로부터 10m까지,서울특별시,강남구,어린이집,서울특별시 강남구 금연환경 조성 및 간접흡연 피해방지 조례 제5조,,100000,02-3423-7115,서울특별시 강남구 강남대로54길 9 한우리교회,서울특별시 강남구 강남대로54길 9 한우리교회,서울특별시 강남구청,37.488434,127.015858,2017-11-17
"선우어린이집",건축물경계로부터 10m까지,서울특별시,강남구,어린이집,서울특별시 강남구 금연환경 조성 및 간접흡연 피해방지 조례 제5조,,100000,02-3423-7115,서울특별시 강남구 도곡로18길 9,서울특별시 강남구 도곡로18길 9,서울특별시 강남구청,37.490731,127.020991,2017-11-17
"역삼럭키어린이집",건축물경계로부터 10m까지,서울특별시,강남구,어린이집,서울특별시 강남구 금연환경 조성 및 간접흡연 피해방지 조례 제5조,,100000,02-3423-7115,서울특별시 강남구 논현로 213 102동 116호,서울특별시 강남구 논현로 213 102동 116호,서울특별시 강남구청,37.490413,127.022676,2017-11-17
"이화어린이집",건축물경계로부터 10m까지,서울특별시,강남구,어린이집,서울특별시 강남구 금연환경 조성 및 간접흡연 피해방지 조례 제5조,,100000,02-3423-7115,서울특별시 강남구 논현로51길 25현대그린APT105호,서울특별시 강남구 논현로51길 25현대그린APT105호,서울특별시 강남구청,37.489120,127.037872,2017-11-17
"꿈사랑몬테소리어린이집",건축물경계로부터 10m까지,서울특별시,강남구,어린이집,서울특별시 강남구 금연환경 조성 및 간접흡연 피해방지 조례 제5조,,100000,02-3423-7115,서울특별시 강남구 선릉로 221 206동 102호,서울특별시 강남구 선릉로 221 206동 102호,서울특별시 강남구청,37.493683,127.033235,2017-11-17
"도곡어린이집",건축물경계로부터 10m까지,서울특별시,강남구,어린이집,서울특별시 강남구 금연환경 조성 및 간접흡연 피해방지 조례 제5조,,100000,02-3423-7115,서울특별시 강남구 선릉로 217,서울특별시 강남구 선릉로 217,서울특별시 강남구청,37.494280,127.035988,2017-11-17
"엔젤어린이집",건축물경계로부터 10m까지,서울특별시,강남구,어린이집,서울특별시 강남구 금연환경 조성 및 간접흡연 피해방지 조례 제5조,,100000,02-3423-7115,서울특별시 강남구 언주로332 역삼푸르지오 106동 101호,서울특별시 강남구 언주로332 역삼푸르지오 106동 101호,서울특별시 강남구청,37.470726,127.085081,2017-11-17
"예꿈어린이집",건축물경계로부터 10m까지,서울특별시,강남구,어린이집,서울특별시 강남구 금연환경 조성 및 간접흡연 피해방지 조례 제5조,,100000,02-3423-7115,서울특별시 강남구 헌릉로571길 20,서울특별시 강남구 헌릉로 571길 20 강남LH e-편한세상아파트내,서울특별시 강남구청,37.485938,127.066219,2017-11-17
"압구정고등학교",출입문으로부터 직선거리 50m까지,서울특별시,강남구,학교절대보호구역,서울특별시 강남구 금연환경 조성 및 간접흡연 피해방지 조례 제5조,,100000,02-3423-7115,서울특별시 강남구 압구정로39길 20,서울특별시 강남구 압구정동 470,서울특별시 강남구청,37.520603,127.033874,2017-11-17
"영동고등학교",출입문으로부터 직선거리 50m까지,서울특별시,강남구,학교절대보호구역,서울특별시 강남구 금연환경 조성 및 간접흡연 피해방지 조례 제5조,,100000,02-3423-7115,서울특별시 강남구 청담동 23-4번지,서울특별시 강남구 청담동 23-4번지,서울특별시 강남구청,37.487958,127.027170,2017-11-17
"은광여자고등학교",출입문으로부터 직선거리 50m까지,서울특별시,강남구,학교절대보호구역,서울특별시 강남구 금연환경 조성 및 간접흡연 피해방지 조례 제5조,,100000,02-3423-7115,서울특별시 강남구 남부순환로359길 36,서울특별시 강남구 도곡동 938-10,서울특별시 강남구청,37.493575,127.071694,2017-11-17
"중동고등학교",출입문으로부터 직선거리 50m까지,서울특별시,강남구,학교절대보호구역,서울특별시 강남구 금연환경 조성 및 간접흡연 피해방지 조례 제5조,,100000,02-3423-7115,서울특별시 강남구 일원로 7,서울특별시 강남구 일원1동 618,서울특별시 강남구청,37.485669,127.072092,2017-11-17
"중산고등학교",출입문으로부터 직선거리 50m까지,서울특별시,강남구,학교절대보호구역,서울특별시 강남구 금연환경 조성 및 간접흡연 피해방지 조례 제5조,,100000,02-3423-7115,서울특별시 강남구 일원로14길 22,서울특별시 강남구 일원동 714,서울특별시 강남구청,37.492487,127.044158,2017-11-17
"중앙대학교사범대학부속고등학교",출입문으로부터 직선거리 50m까지,서울특별시,강남구,학교절대보호구역,서울특별시 강남구 금연환경 조성 및 간접흡연 피해방지 조례 제5조,,100000,02-3423-7115,서울특별시 강남구 선릉로 207,서울특별시 강남구 도곡 2동 108번지,서울특별시 강남구청,37.501770,127.038884,2017-11-17
"진선여자고등학교",출입문으로부터 직선거리 50m까지,서울특별시,강남구,학교절대보호구역,서울특별시 강남구 금연환경 조성 및 간접흡연 피해방지 조례 제5조,,100000,02-3423-7115,서울특별시 강남구 선릉로85길 27,서울특별시 강남구 역삼 2동 713번지,서울특별시 강남구청,37.527900,127.034774,2017-11-17
"청담고등학교",출입문으로부터 직선거리 50m까지,서울특별시,강남구,학교절대보호구역,서울특별시 강남구 금연환경 조성 및 간접흡연 피해방지 조례 제5조,,100000,02-3423-7115,서울특별시 강남구 압구정로 419,서울특별시 강남구 압구정동 526,서울특별시 강남구청,37.525065,127.013900,2017-11-17
"현대고등학교",출입문으로부터 직선거리 50m까지,서울특별시,강남구,학교절대보호구역,서울특별시 강남구 금연환경 조성 및 간접흡연 피해방지 조례 제5조,,100000,02-3423-7115,서울특별시 강남구 압구정로 127,서울특별시 강남구 압구정동 425번지,서울특별시 강남구청,37.504967,127.053311,2017-11-17
"휘문고등학교",출입문으로부터 직선거리 50m까지,서울특별시,강남구,학교절대보호구역,서울특별시 강남구 금연환경 조성 및 간접흡연 피해방지 조례 제5조,,100000,02-3423-7115,서울특별시 강남구 역삼로 541,서울특별시 강남구 대치 2동 952-1번지,서울특별시 강남구청,37.495352,127.047739,2017-11-17
"단국공업고등학교",출입문으로부터 직선거리 50m까지,서울특별시,강남구,학교절대보호구역,서울특별시 강남구 금연환경 조성 및 간접흡연 피해방지 조례 제5조,,100000,02-3423-7115,서울특별시 강남구 도곡로78길 22,서울특별시 강남구 대치 1동 1013,서울특별시 강남구청,37.490456,127.087250,2017-11-17
"대진디자인고등학교",출입문으로부터 직선거리 50m까지,서울특별시,강남구,학교절대보호구역,서울특별시 강남구 금연환경 조성 및 간접흡연 피해방지 조례 제5조,,100000,02-3423-7115,서울특별시 강남구 광평로39길 93,서울특별시 강남구 수서동 733,서울특별시 강남구청,37.480759,127.075620,2017-11-17
"서울로봇고등학교",출입문으로부터 직선거리 50m까지,서울특별시,강남구,학교절대보호구역,서울특별시 강남구 금연환경 조성 및 간접흡연 피해방지 조례 제5조,,100000,02-3423-7115,서울특별시 강남구 광평로20길 63,서울특별시 강남구 일원동 738,서울특별시 강남구청,37.485047,127.055153,2017-11-17
"수도전기공업고등학교",출입문으로부터 직선거리 50m까지,서울특별시,강남구,학교절대보호구역,서울특별시 강남구 금연환경 조성 및 간접흡연 피해방지 조례 제5조,,100000,02-3423-7115,서울특별시 강남구 개포로 410,서울특별시 강남구 개포 2동 155번지,서울특별시 강남구청,37.475994,127.042858,2017-11-17
"인능산도시자연공원",시설전체,서울특별시,강남구,공원,서울특별시 강남구 금연환경 조성 및 간접흡연 피해방지 조례 제5조,172500,100000,02-3423-7115,서울특별시 강남구 세곡동 산48-1 일대,서울특별시 강남구 세곡동 산48-1 일대,서울특별시 강남구청,37.469116,127.078417,2017-11-17
"일원장미공원",시설전체,서울특별시,강남구,공원,서울특별시 강남구 금연환경 조성 및 간접흡연 피해방지 조례 제5조,1500,100000,02-3423-7115,서울특별시 강남구 광평로10길 50,서울특별시 강남구 일원동 732-4,서울특별시 강남구청,37.480663,127.063194,2017-11-17
"일원개나리공원",시설전체,서울특별시,강남구,공원,서울특별시 강남구 금연환경 조성 및 간접흡연 피해방지 조례 제5조,4454,100000,02-3423-7115,서울특별시 강남구 광평로10길 6,서울특별시 강남구 일원동 730-3,서울특별시 강남구청,37.482975,127.058973,2017-11-17
"일원느티나무공원",시설전체,서울특별시,강남구,공원,서울특별시 강남구 금연환경 조성 및 간접흡연 피해방지 조례 제5조,1826,100000,02-3423-7115,서울특별시 강남구 광평로1길 7,서울특별시 강남구 일원동 730-2,서울특별시 강남구청,37.483029,127.059937,2017-11-17
"일원소나무공원",시설전체,서울특별시,강남구,공원,서울특별시 강남구 금연환경 조성 및 간접흡연 피해방지 조례 제5조,1501,100000,02-3423-7115,서울특별시 강남구 일원로14길 25,서울특별시 강남구 일원동 718-1,서울특별시 강남구청,37.484043,127.064258,2017-11-17
"일원상록수공원",시설전체,서울특별시,강남구,공원,서울특별시 강남구 금연환경 조성 및 간접흡연 피해방지 조례 제5조,1500,100000,02-3423-7115,서울특별시 강남구 광평로10길 15,서울특별시 강남구 일원동 734-1,서울특별시 강남구청,37.482084,127.064685,2017-11-17
"일원비둘기공원",시설전체,서울특별시,강남구,공원,서울특별시 강남구 금연환경 조성 및 간접흡연 피해방지 조례 제5조,1501,100000,02-3423-7115,서울특별시 강남구 광평로 126,서울특별시 강남구 일원동 735-1,서울특별시 강남구청,37.483269,127.068474,2017-11-17
"일원진달래공원",시설전체,서울특별시,강남구,공원,서울특별시 강남구 금연환경 조성 및 간접흡연 피해방지 조례 제5조,1500,100000,02-3423-7115,서울특별시 강남구 광평로19길 15,서울특별시 강남구 일원동 716-1,서울특별시 강남구청,37.484735,127.067211,2017-11-17
"일원새싹공원",시설전체,서울특별시,강남구,공원,서울특별시 강남구 금연환경 조성 및 간접흡연 피해방지 조례 제5조,1500,100000,02-3423-7115,서울특별시 강남구 광평로31길 27,서울특별시 강남구 수서동 746-1,서울특별시 강남구청,37.484754,127.071566,2017-11-17
"수서까치공원",시설전체,서울특별시,강남구,공원,서울특별시 강남구 금연환경 조성 및 간접흡연 피해방지 조례 제5조,1500,100000,02-3423-7115,서울특별시 강남구 광평로47길 17,서울특별시 강남구 수서동 736-1,서울특별시 강남구청,37.487122,127.080428,2017-11-17
"수서은행나무공원",시설전체,서울특별시,강남구,공원,서울특별시 강남구 금연환경 조성 및 간접흡연 피해방지 조례 제5조,1500,100000,02-3423-7115,서울특별시 강남구 광평로51길 49,서울특별시 강남구 수서동 707-1,서울특별시 강남구청,37.491329,127.082296,2017-11-17
"수서목련공원",시설전체,서울특별시,강남구,공원,서울특별시 강남구 금연환경 조성 및 간접흡연 피해방지 조례 제5조,1419,100000,02-3423-7115,서울특별시 강남구 광평로51길 22,서울특별시 강남구 수서동 712-1,서울특별시 강남구청,37.490547,127.086247,2017-11-17
"수서개나리공원",시설전체,서울특별시,강남구,공원,서울특별시 강남구 금연환경 조성 및 간접흡연 피해방지 조례 제5조,1500,100000,02-3423-7115,서울특별시 강남구 광평로56길 11,서울특별시 강남구 수서동 723-1,서울특별시 강남구청,37.487719,127.105397,2017-11-17
"아래반고개공원",시설전체,서울특별시,강남구,공원,서울특별시 강남구 금연환경 조성 및 간접흡연 피해방지 조례 제5조,863,100000,02-3423-7115,서울특별시 강남구 밤고개로34길 10,"서울특별시 강남구 세곡동 129-13,164-7",서울특별시 강남구청,37.463856,127.089585,2017-11-17
"윗반 고개공원",시설전체,서울특별시,강남구,공원,서울특별시 강남구 금연환경 조성 및 간접흡연 피해방지 조례 제5조,2,100000,02-3423-7115,서울특별시 강남구 헌릉로637길 12,서울특별시 강남구 세곡동  99-6,서울특별시 강남구청,37.465659,127.091635,2017-11-17
"윗반 고개공원",시설전체,서울특별시,강남구,공원,서울특별시 강남구 금연환경 조성 및 간접흡연 피해방지 조례 제5조,187,100000,02-3423-7115,서울특별시 강남구 밤고개로31길 9,서울특별시 강남구 세곡동  100-15,서울특별시 강남구청,37.465725,127.091940,2017-11-17
"윗반 고개공원",시설전체,서울특별시,강남구,공원,서울특별시 강남구 금연환경 조성 및 간접흡연 피해방지 조례 제5조,109,100000,02-3423-7115,서울특별시 강남구 밤고개로31길 9,서울특별시 강남구 세곡동  102-9,서울특별시 강남구청,37.466029,127.109335,2017-11-17
"우리아이어린이집",건축물경계로부터 10m까지,서울특별시,강남구,어린이집,서울특별시 강남구 금연환경 조성 및 간접흡연 피해방지 조례 제5조,,100000,02-3423-7115,서울특별시 강남구 삼성로 14,서울특별시 강남구 삼성로  14 주공4단지 444동,서울특별시 강남구청,37.470726,127.085081,2017-11-17
"은하수어린이집",건축물경계로부터 10m까지,서울특별시,강남구,어린이집,서울특별시 강남구 금연환경 조성 및 간접흡연 피해방지 조례 제5조,,100000,02-3423-7115,서울특별시 강남구 자곡로 21,서울특별시 강남구 자곡로 21 LH푸르지오 204동 104호,서울특별시 강남구청,37.483536,127.101792,2017-11-17
"경원주유소",영업허가 면적 경계선까지,서울특별시,강남구,주유소,서울특별시 강남구 금연환경 조성 및 간접흡연 피해방지 조례 제5조,,100000,02-3423-7115,서울특별시 강남구 도산대로 428,서울특별시 강남구 청담동 3-6,서울특별시 강남구청,37.494864,127.037071,2017-11-17
"매봉주유소",영업허가 면적 경계선까지,서울특별시,강남구,주유소,서울특별시 강남구 금연환경 조성 및 간접흡연 피해방지 조례 제5조,,100000,02-3423-7115,서울특별시 강남구 언주로 307,서울특별시 강남구 역삼동 784-7,서울특별시 강남구청,37.526698,127.034760,2017-11-17
"갤러리아주유소",영업허가 면적 경계선까지,서울특별시,강남구,주유소,서울특별시 강남구 금연환경 조성 및 간접흡연 피해방지 조례 제5조,,100000,02-3423-7115,서울특별시 강남구 압구정로 426,서울특별시 강남구 청담동 79-14,서울특별시 강남구청,37.520991,127.055858,2017-11-17
"주성주유소",영업허가 면적 경계선까지,서울특별시,강남구,주유소,서울특별시 강남구 금연환경 조성 및 간접흡연 피해방지 조례 제5조,,100000,02-3423-7115,서울특별시 강남구 영동대로 716,"서울특별시 강남구 청담동 132-9,10,11",서울특별시 강남구청,37.511530,127.038338,2017-11-17
"삼보주유소",영업허가 면적 경계선까지,서울특별시,강남구,주유소,서울특별시 강남구 금연환경 조성 및 간접흡연 피해방지 조례 제5조,,100000,02-3423-7115,서울특별시 강남구 봉은사로 433,"서울특별시 강남구 삼성동 38-21,22",서울특별시 강남구청,37.507800,127.027714,2017-11-17
GS칼텍스㈜강남그린점,영업허가 면적 경계선까지,서울특별시,강남구,주유소,서울특별시 강남구 금연환경 조성 및 간접흡연 피해방지 조례 제5조,,100000,02-3423-7115,서울특별시 강남구 봉은사로 222,서울특별시 강남구 역삼동 652-2,서울특별시 강남구청,37.510715,127.023965,2017-11-17
"힐탑주유소",영업허가 면적 경계선까지,서울특별시,강남구,주유소,서울특별시 강남구 금연환경 조성 및 간접흡연 피해방지 조례 제5조,,100000,02-3423-7115,서울특별시 강남구 논현로 640,서울특별시 강남구 논현동 221-15,서울특별시 강남구청,37.505030,127.016613,2017-11-17
"성원주유소",영업허가 면적 경계선까지,서울특별시,강남구,주유소,서울특별시 강남구 금연환경 조성 및 간접흡연 피해방지 조례 제5조,,100000,02-3423-7115,서울특별시 강남구 봉은사로1길 6,"서울특별시 강남구 논현동 201-14,16",서울특별시 강남구청,37.505030,127.016613,2017-11-17
"대교주유소",영업허가 면적 경계선까지,서울특별시,강남구,주유소,서울특별시 강남구 금연환경 조성 및 간접흡연 피해방지 조례 제5조,,100000,02-3423-7115,서울특별시 강남구 강남대로 640,서울특별시 강남구 신사동 503-1,서울특별시 강남구청,37.519487,127.017559,2017-11-17
"㈜새서울주유소카젠",영업허가 면적 경계선까지,서울특별시,강남구,주유소,서울특별시 강남구 금연환경 조성 및 간접흡연 피해방지 조례 제5조,,100000,02-3423-7115,서울특별시 강남구 도산대로 163,"서울특별시 강남구 신사동 563-10,42",서울특별시 강남구청,37.500043,127.058423,2017-11-17
"은마주유소",영업허가 면적 경계선까지,서울특별시,강남구,주유소,서울특별시 강남구 금연환경 조성 및 간접흡연 피해방지 조례 제5조,,100000,02-3423-7115,서울특별시 강남구 영동대로 235,서울특별시 강남구 대치동 994,서울특별시 강남구청,37.507459,127.030454,2017-11-17
"스포월드주유소",영업허가 면적 경계선까지,서울특별시,강남구,주유소,서울특별시 강남구 금연환경 조성 및 간접흡연 피해방지 조례 제5조,,100000,02-3423-7115,서울특별시 강남구 언주로 559,서울특별시 강남구 역삼동 654-4,서울특별시 강남구청,37.466494,127.110284,2017-11-17
"현대오일뱅크㈜직영산성주유소",영업허가 면적 경계선까지,서울특별시,강남구,주유소,서울특별시 강남구 금연환경 조성 및 간접흡연 피해방지 조례 제5조,,100000,02-3423-7115,서울특별시 강남구 헌릉로 730,서울특별시 강남구 세곡동 20-8,서울특별시 강남구청,37.496368,127.030820,2017-11-17
"달터공원",시설전체,서울특별시,강남구,공원,서울특별시 강남구 금연환경 조성 및 간접흡연 피해방지 조례 제5조,232078,100000,02-3423-7115,서울특별시 강남구 선릉로18길 15,서울특별시 강남구 개포동 156외 23필지,서울특별시 강남구청,37.477179,127.047294,2017-11-17
"도곡공원",시설전체,서울특별시,강남구,공원,서울특별시 강남구 금연환경 조성 및 간접흡연 피해방지 조례 제5조,254648,100000,02-3423-7115,서울특별시 강남구 도곡동 산31-1외93필지,서울특별시 강남구 도곡동 산31-1외93필지,서울특별시 강남구청,37.490379,127.042582,2017-11-17
"개포공원",시설전체,서울특별시,강남구,공원,서울특별시 강남구 금연환경 조성 및 간접흡연 피해방지 조례 제5조,90064,100000,02-3423-7115,서울특별시 강남구 선릉로4길 30,서울특별시 강남구 개포동 139,서울특별시 강남구청,37.486215,127.061820,2017-11-17
"청담공원",시설전체,서울특별시,강남구,공원,서울특별시 강남구 금연환경 조성 및 간접흡연 피해방지 조례 제5조,59347,100000,02-3423-7115,서울특별시 강남구 청담동 66외 4필지,서울특별시 강남구 청담동 66외 4필지,서울특별시 강남구청,37.521292,127.050392,2017-11-17
"학동공원",시설전체,서울특별시,강남구,공원,서울특별시 강남구 금연환경 조성 및 간접흡연 피해방지 조례 제5조,29947,100000,02-3423-7115,서울특별시 강남구 논현동 26,서울특별시 강남구 논현동 26,서울특별시 강남구청,37.515681,127.023222,2017-11-17
"역삼공원",시설전체,서울특별시,강남구,공원,서울특별시 강남구 금연환경 조성 및 간접흡연 피해방지 조례 제5조,28519,100000,02-3423-7115,서울특별시 강남구 테헤란로7길 32,서울특별시 강남구 역삼동 635외 1필지,서울특별시 강남구청,37.502546,127.027438,2017-11-17
"싸리고개공원",시설전체,서울특별시,강남구,공원,서울특별시 강남구 금연환경 조성 및 간접흡연 피해방지 조례 제5조,15073,100000,02-3423-7115,서울특별시 강남구 도곡로14길 14-1,서울특별시 강남구 도곡동 550외 5필지,서울특별시 강남구청,37.489490,127.033416,2017-11-17
"봉은사공원",시설전체,서울특별시,강남구,공원,서울특별시 강남구 금연환경 조성 및 간접흡연 피해방지 조례 제5조,75636,100000,02-3423-7115,서울특별시 강남구 봉은사로 531,서울특별시 강남구 삼성동 75외 4필지,서울특별시 강남구청,37.489485,127.000586,2017-11-17
"도산공원",시설전체,서울특별시,강남구,공원,서울특별시 강남구 금연환경 조성 및 간접흡연 피해방지 조례 제5조,29817,100000,02-3423-7115,서울특별시 강남구 도산대로45길 20,서울특별시 강남구 신사동 649-9,서울특별시 강남구청,37.523910,127.018082,2017-11-17
"늘벗공원",시설전체,서울특별시,강남구,공원,서울특별시 강남구 금연환경 조성 및 간접흡연 피해방지 조례 제5조,19812,100000,02-3423-7115,서울특별시 강남구 대치동 501,서울특별시 강남구 대치동 501,서울특별시 강남구청,37.489743,127.057128,2017-11-17
"한티공원",시설전체,서울특별시,강남구,공원,서울특별시 강남구 금연환경 조성 및 간접흡연 피해방지 조례 제5조,19200,100000,02-3423-7115,서울특별시 강남구 대치동 212-1 외 13필지,서울특별시 강남구 대치동 212-1 외 13필지,서울특별시 강남구청,37.495105,127.062339,2017-11-17
"청수공원",시설전체,서울특별시,강남구,공원,서울특별시 강남구 금연환경 조성 및 간접흡연 피해방지 조례 제5조,17402,100000,02-3423-7115,서울특별시 강남구 학동로105길 30,서울특별시 강남구 청담동 134-13외 12필지,서울특별시 강남구청,37.523231,127.040921,2017-11-17
"대청공원",시설전체,서울특별시,강남구,공원,서울특별시 강남구 금연환경 조성 및 간접흡연 피해방지 조례 제5조,14089,100000,02-3423-7115,서울특별시 강남구 개포로116길 21,서울특별시 강남구 일원동 621,서울특별시 강남구청,37.492778,127.065308,2017-11-17
"포이공원",시설전체,서울특별시,강남구,공원,서울특별시 강남구 금연환경 조성 및 간접흡연 피해방지 조례 제5조,13577,100000,02-3423-7115,서울특별시 강남구 개포로15길 25,서울특별시 강남구 개포동 1239-21외 4필지,서울특별시 강남구청,37.479663,127.027282,2017-11-17
"대진공원",시설전체,서울특별시,강남구,공원,서울특별시 강남구 금연환경 조성 및 간접흡연 피해방지 조례 제5조,13568,100000,02-3423-7115,서울특별시 강남구 개포로109길 62,서울특별시 강남구 개포동 13-1,서울특별시 강남구청,37.496031,127.061264,2017-11-17
"한솔공원",시설전체,서울특별시,강남구,공원,서울특별시 강남구 금연환경 조성 및 간접흡연 피해방지 조례 제5조,12878,100000,02-3423-7115,서울특별시 강남구 광평로10길 6,서울특별시 강남구 일원동 732,서울특별시 강남구청,37.480918,127.060656,2017-11-17
"윗반 고개공원",시설전체,서울특별시,강남구,공원,서울특별시 강남구 금연환경 조성 및 간접흡연 피해방지 조례 제5조,94,100000,02-3423-7115,서울특별시 강남구 세곡동  102-24,서울특별시 강남구 세곡동  102-24,서울특별시 강남구청,37.465885,127.091767,2017-11-17
"윗반 고개공원",시설전체,서울특별시,강남구,공원,서울특별시 강남구 금연환경 조성 및 간접흡연 피해방지 조례 제5조,100,100000,02-3423-7115,서울특별시 강남구 세곡동  100-15,서울특별시 강남구 세곡동  100-15,서울특별시 강남구청,37.465725,127.091940,2017-11-17
"윗반 고개공원",시설전체,서울특별시,강남구,공원,서울특별시 강남구 금연환경 조성 및 간접흡연 피해방지 조례 제5조,252,100000,02-3423-7115,서울특별시 강남구 밤고개로31길 9,서울특별시 강남구 세곡동 102-8,서울특별시 강남구청,37.465807,127.091725,2017-11-17
"윗반 고개공원",시설전체,서울특별시,강남구,공원,서울특별시 강남구 금연환경 조성 및 간접흡연 피해방지 조례 제5조,105,100000,02-3423-7115,서울특별시 강남구 세곡동  102-17,서울특별시 강남구 세곡동  102-17,서울특별시 강남구청,37.465935,127.109209,2017-11-17
"윗반 고개공원",시설전체,서울특별시,강남구,공원,서울특별시 강남구 금연환경 조성 및 간접흡연 피해방지 조례 제5조,183,100000,02-3423-7115,서울특별시 강남구 세곡동 102-22,서울특별시 강남구 세곡동 102-22,서울특별시 강남구청,37.465931,127.091770,2017-11-17
"세곡키즈어린이집",건축물경계로부터 10m까지,서울특별시,강남구,어린이집,서울특별시 강남구 금연환경 조성 및 간접흡연 피해방지 조례 제5조,,100000,02-3423-7115,서울특별시 강남구 자곡로 101,서울특별시 강남구 자곡로 21LH푸르지오 215동 101호,서울특별시 강남구청,37.498269,127.047051,2017-11-17
"아이린키즈어린이집",건축물경계로부터 10m까지,서울특별시,강남구,어린이집,서울특별시 강남구 금연환경 조성 및 간접흡연 피해방지 조례 제5조,,100000,02-3423-7115,서울특별시 강남구 학동로68길 29,서울특별시 강남구 학동로 68길 29,서울특별시 강남구청,37.469026,127.098149,2017-11-17
"세곡나비어린이집",건축물경계로부터 10m까지,서울특별시,강남구,어린이집,서울특별시 강남구 금연환경 조성 및 간접흡연 피해방지 조례 제5조,,100000,02-3423-7115,서울특별시 강남구 밤고개로 286,서울특별시 강남구 밤고개로 286,서울특별시 강남구청,37.468664,127.098241,2017-11-17
"세곡햇빛어린이집",건축물경계로부터 10m까지,서울특별시,강남구,어린이집,서울특별시 강남구 금연환경 조성 및 간접흡연 피해방지 조례 제5조,,100000,02-3423-7115,서울특별시 강남구 밤고개로 286-1,서울특별시 강남구 밤고개로 286-1,서울특별시 강남구청,37.480988,127.091373,2017-11-17
"아이비어린이집",건축물경계로부터 10m까지,서울특별시,강남구,어린이집,서울특별시 강남구 금연환경 조성 및 간접흡연 피해방지 조례 제5조,,100000,02-3423-7115,서울특별시 강남구 자곡로260 한양수자인아파트 416동 105호,서울특별시 강남구 자곡로260 한양수자인아파트 416동 105호,서울특별시 강남구청,37.479857,127.101465,2017-11-17
"꼬망새어린이집",건축물경계로부터 10m까지,서울특별시,강남구,어린이집,서울특별시 강남구 금연환경 조성 및 간접흡연 피해방지 조례 제5조,,100000,02-3423-7115,서울특별시 강남구 자곡로230자곡포레아파트 306동 102호,서울특별시 강남구 자곡로230자곡포레아파트 306동 102호,서울특별시 강남구청,37.480988,127.091373,2017-11-17
"리엔아이어린이집",건축물경계로부터 10m까지,서울특별시,강남구,어린이집,서울특별시 강남구 금연환경 조성 및 간접흡연 피해방지 조례 제5조,,100000,02-3423-7115,서울특별시 강남구 자곡로260 한양수자인 아파트 417동 104호,서울특별시 강남구 자곡로260 한양수자인 아파트 417동 104호,서울특별시 강남구청,37.479928,127.070823,2017-11-17
"키움어린이집",건축물경계로부터 10m까지,서울특별시,강남구,어린이집,서울특별시 강남구 금연환경 조성 및 간접흡연 피해방지 조례 제5조,,100000,02-3423-7115,서울특별시 강남구 언주로35동 우성6차아파트  106호,서울특별시 강남구 언주로35동 우성6차아파트  106호,서울특별시 강남구청,37.493399,127.025158,2017-11-17
"강남키즈랜드어린이집",건축물경계로부터 10m까지,서울특별시,강남구,어린이집,서울특별시 강남구 금연환경 조성 및 간접흡연 피해방지 조례 제5조,,100000,02-3423-7115,서울특별시 강남구 역삼로8길 11,서울특별시 강남구 강남구 역삼로 8길 11,서울특별시 강남구청,37.492151,127.011862,2017-11-17
GKL행복어린이집,건축물경계로부터 10m까지,서울특별시,강남구,어린이집,서울특별시 강남구 금연환경 조성 및 간접흡연 피해방지 조례 제5조,,100000,02-3423-7115,서울특별시 강남구 강남구 삼성로122길 7 GKL 행복 어린이집,서울특별시 강남구 강남구 삼성로122길 7 GKL 행복 어린이집,서울특별시 강남구청,37.487077,126.967121,2017-11-17
"한강에너지㈜강남제일주유소",영업허가 면적 경계선까지,서울특별시,강남구,주유소,서울특별시 강남구 금연환경 조성 및 간접흡연 피해방지 조례 제5조,,100000,02-3423-7115,서울특별시 강남구 역삼로 205,서울특별시 강남구 역삼동 734-15,서울특별시 강남구청,37.483338,127.034025,2017-11-17
"현대오일뱅크㈜직영 유진주유소",영업허가 면적 경계선까지,서울특별시,강남구,주유소,서울특별시 강남구 금연환경 조성 및 간접흡연 피해방지 조례 제5조,,100000,02-3423-7115,서울특별시 강남구 논현로 152,"서울특별시 강남구 도곡동 515-2,3,6,7",서울특별시 강남구청,37.485666,127.031126,2017-11-17
"오일프러스주유소",영업허가 면적 경계선까지,서울특별시,강남구,주유소,서울특별시 강남구 금연환경 조성 및 간접흡연 피해방지 조례 제5조,,100000,02-3423-7115,서울특별시 강남구 남부순환로 2651,"서울특별시 강남구 도곡동 910-2,28,29",서울특별시 강남구청,37.494118,127.036727,2017-11-17
"㈜잠실에너지 명품주유소",영업허가 면적 경계선까지,서울특별시,강남구,주유소,서울특별시 강남구 금연환경 조성 및 간접흡연 피해방지 조례 제5조,,100000,02-3423-7115,서울특별시 강남구 도곡로 249,"서울특별시 강남구 역삼동 785-17,18,23",서울특별시 강남구청,37.476115,127.080921,2017-11-17
"자곡주유소",영업허가 면적 경계선까지,서울특별시,강남구,주유소,서울특별시 강남구 금연환경 조성 및 간접흡연 피해방지 조례 제5조,,100000,02-3423-7115,"서울특별시 강남구 자곡동 210, 209-1","서울특별시 강남구 자곡동 210, 209-1",서울특별시 강남구청,37.484010,127.086223,2017-11-17
"㈜중앙에너비스 수서지점",영업허가 면적 경계선까지,서울특별시,강남구,주유소,서울특별시 강남구 금연환경 조성 및 간접흡연 피해방지 조례 제5조,,100000,02-3423-7115,서울특별시 강남구 광평로 202,서울특별시 강남구 수서동 522-1,서울특별시 강남구청,37.474956,127.098097,2017-11-17
"청담역",청담역 10번출구로부터 10미터 이내,서울특별시,강남구,지하철역,서울특별시 강남구 금연환경 조성 및 간접흡연 피해방지 조례 제5조,,100000,02-3423-7115,서울특별시 강남구 학동로 508,서울특별시 강남구 청담동 77-76,서울특별시 강남구청,37.519111,127.051894,2017-11-17
"청담역",청담역 11번출구로부터 10미터 이내,서울특별시,강남구,지하철역,서울특별시 강남구 금연환경 조성 및 간접흡연 피해방지 조례 제5조,,100000,02-3423-7115,서울특별시 강남구 학동로 508,서울특별시 강남구 청담동 77-76,서울특별시 강남구청,37.519111,127.051894,2017-11-17
"청담역",청담역 12번출구로부터 10미터 이내,서울특별시,강남구,지하철역,서울특별시 강남구 금연환경 조성 및 간접흡연 피해방지 조례 제5조,,100000,02-3423-7115,서울특별시 강남구 학동로 508,서울특별시 강남구 청담동 77-76,서울특별시 강남구청,37.519111,127.051894,2017-11-17
"청담역",청담역 13번출구로부터 10미터 이내,서울특별시,강남구,지하철역,서울특별시 강남구 금연환경 조성 및 간접흡연 피해방지 조례 제5조,,100000,02-3423-7115,서울특별시 강남구 학동로 508,서울특별시 강남구 청담동 77-76,서울특별시 강남구청,37.519111,127.051894,2017-11-17
"청담역",청담역 14번출구로부터 10미터 이내,서울특별시,강남구,지하철역,서울특별시 강남구 금연환경 조성 및 간접흡연 피해방지 조례 제5조,,100000,02-3423-7115,서울특별시 강남구 학동로 508,서울특별시 강남구 청담동 77-76,서울특별시 강남구청,37.519111,127.051894,2017-11-17
"학동역",학동역 1번출구로부터 10미터 이내,서울특별시,강남구,지하철역,서울특별시 강남구 금연환경 조성 및 간접흡연 피해방지 조례 제5조,,100000,02-3423-7115,서울특별시 강남구 학동로 180,서울특별시 강남구 논현동 279-67,서울특별시 강남구청,37.514193,127.031572,2017-11-17
"학동역",학동역 2번출구로부터 10미터 이내,서울특별시,강남구,지하철역,서울특별시 강남구 금연환경 조성 및 간접흡연 피해방지 조례 제5조,,100000,02-3423-7115,서울특별시 강남구 학동로 180,서울특별시 강남구 논현동 279-67,서울특별시 강남구청,37.514193,127.031572,2017-11-17
"학동역",학동역 3번출구로부터 10미터 이내,서울특별시,강남구,지하철역,서울특별시 강남구 금연환경 조성 및 간접흡연 피해방지 조례 제5조,,100000,02-3423-7115,서울특별시 강남구 학동로 180,서울특별시 강남구 논현동 279-67,서울특별시 강남구청,37.514193,127.031572,2017-11-17
"학동역",학동역 4번출구로부터 10미터 이내,서울특별시,강남구,지하철역,서울특별시 강남구 금연환경 조성 및 간접흡연 피해방지 조례 제5조,,100000,02-3423-7115,서울특별시 강남구 학동로 180,서울특별시 강남구 논현동 279-67,서울특별시 강남구청,37.514193,127.031572,2017-11-17
"학여울공원",시설전체,서울특별시,강남구,공원,서울특별시 강남구 금연환경 조성 및 간접흡연 피해방지 조례 제5조,12506,100000,02-3423-7115,서울특별시 강남구 개포로 513,서울특별시 강남구 개포동 183-1외 1필지,서울특별시 강남구청,37.491000,127.052495,2017-11-17
"배밭공원",시설전체,서울특별시,강남구,공원,서울특별시 강남구 금연환경 조성 및 간접흡연 피해방지 조례 제5조,11627,100000,02-3423-7115,서울특별시 강남구 개포로 411,서울특별시 강남구 개포동 181외 1필지,서울특별시 강남구청,37.488720,127.044887,2017-11-17
"늘푸른공원",시설전체,서울특별시,강남구,공원,서울특별시 강남구 금연환경 조성 및 간접흡연 피해방지 조례 제5조,11410,100000,02-3423-7115,서울특별시 강남구 일원동 690,서울특별시 강남구 일원동 690,서울특별시 강남구청,37.489867,127.059926,2017-11-17
"개포서공원",시설전체,서울특별시,강남구,공원,서울특별시 강남구 금연환경 조성 및 간접흡연 피해방지 조례 제5조,11219,100000,02-3423-7115,서울특별시 강남구 개포동 180외 2필지,서울특별시 강남구 개포동 180외 2필지,서울특별시 강남구청,37.488627,127.046632,2017-11-17
"대치공원",시설전체,서울특별시,강남구,공원,서울특별시 강남구 금연환경 조성 및 간접흡연 피해방지 조례 제5조,10409,100000,02-3423-7115,서울특별시 강남구 대치동 512,서울특별시 강남구 대치동 512,서울특별시 강남구청,37.495105,127.052354,2017-11-17
"베스트베이비어린이집",건축물경계로부터 10m까지,서울특별시,강남구,어린이집,서울특별시 강남구 금연환경 조성 및 간접흡연 피해방지 조례 제5조,,100000,02-3423-7115,서울특별시 강남구 개포로109길 5 218동 108호,서울특별시 강남구 개포로109길 5 218동 108호,서울특별시 강남구청,37.493964,127.057588,2017-11-17
"베이비케슬어린이집",건축물경계로부터 10m까지,서울특별시,강남구,어린이집,서울특별시 강남구 금연환경 조성 및 간접흡연 피해방지 조례 제5조,,100000,02-3423-7115,서울특별시 강남구 개포로110길 15 114동 105호,서울특별시 강남구 개포로110길 15 114동 105호,서울특별시 강남구청,37.492339,127.060614,2017-11-17
"우성 유아 어린이집",건축물경계로부터 10m까지,서울특별시,강남구,어린이집,서울특별시 강남구 금연환경 조성 및 간접흡연 피해방지 조례 제5조,,100000,02-3423-7115,서울특별시 강남구 개포로110길 15 101동 104호,서울특별시 강남구 개포로110길 15 101동 104호,서울특별시 강남구청,37.492339,127.060614,2017-11-17
"애솔 어린이집",건축물경계로부터 10m까지,서울특별시,강남구,어린이집,서울특별시 강남구 금연환경 조성 및 간접흡연 피해방지 조례 제5조,,100000,02-3423-7115,서울특별시 강남구 선릉로 7 93동 109호,서울특별시 강남구 선릉로 7 93동 109호,서울특별시 강남구청,37.478366,127.043974,2017-11-17
"천사어린이집",건축물경계로부터 10m까지,서울특별시,강남구,어린이집,서울특별시 강남구 금연환경 조성 및 간접흡연 피해방지 조례 제5조,,100000,02-3423-7115,서울특별시 강남구 개포로 311 902동 111호,서울특별시 강남구 개포로 311 902동 111호,서울특별시 강남구청,37.484801,127.039668,2017-11-17
"강남베베하우스어린이집",건축물경계로부터 10m까지,서울특별시,강남구,어린이집,서울특별시 강남구 금연환경 조성 및 간접흡연 피해방지 조례 제5조,,100000,02-3423-7115,서울특별시 강남구 삼성로 14 주공아파트 414동 102호,서울특별시 강남구 삼성로 14 주공아파트 414동 102호,서울특별시 강남구청,37.485535,127.053926,2017-11-17
"아름드리어린이집",건축물경계로부터 10m까지,서울특별시,강남구,어린이집,서울특별시 강남구 금연환경 조성 및 간접흡연 피해방지 조례 제5조,,100000,02-3423-7115,서울특별시 강남구 삼성로 14 436동 105호,서울특별시 강남구 삼성로 14 436동 105호,서울특별시 강남구청,37.485535,127.053926,2017-11-17
"개포어린이집",건축물경계로부터 10m까지,서울특별시,강남구,어린이집,서울특별시 강남구 금연환경 조성 및 간접흡연 피해방지 조례 제5조,,100000,02-3423-7115,서울특별시 강남구 영동대로3길 9,서울특별시 강남구 영동대로3길 9,서울특별시 강남구청,37.487948,127.056179,2017-11-17
"개포좋은어린이집",건축물경계로부터 10m까지,서울특별시,강남구,어린이집,서울특별시 강남구 금연환경 조성 및 간접흡연 피해방지 조례 제5조,,100000,02-3423-7115,서울특별시 강남구 선릉로12길 10,서울특별시 강남구 선릉로12길 10,서울특별시 강남구청,37.483566,127.043241,2017-11-17
"사랑샘어린이집",건축물경계로부터 10m까지,서울특별시,강남구,어린이집,서울특별시 강남구 금연환경 조성 및 간접흡연 피해방지 조례 제5조,,100000,02-3423-7115,서울특별시 강남구 개포로 516 708동 106호,서울특별시 강남구 개포로 516 708동 106호,서울특별시 강남구청,37.488831,127.053977,2017-11-17
"강남 아이트라움 어린이집",건축물경계로부터 10m까지,서울특별시,강남구,어린이집,서울특별시 강남구 금연환경 조성 및 간접흡연 피해방지 조례 제5조,,100000,02-3423-7115,서울특별시 강남구 강남구 개포로124길 13 (일원동),서울특별시 강남구 강남구 개포로124길 13 (일원동),서울특별시 강남구청,37.524300,127.016678,2017-11-17
"광림어린이집",건축물경계로부터 10m까지,서울특별시,강남구,어린이집,서울특별시 강남구 금연환경 조성 및 간접흡연 피해방지 조례 제5조,,100000,02-3423-7115,서울특별시 강남구 강남구 논현로175길 49,서울특별시 강남구 강남구 논현로175길 49,서울특별시 강남구청,37.493982,127.066343,2017-11-17
"리틀바움어린이집",건축물경계로부터 10m까지,서울특별시,강남구,어린이집,서울특별시 강남구 금연환경 조성 및 간접흡연 피해방지 조례 제5조,,100000,02-3423-7115,서울특별시 강남구 강남구 개포로109길 21 대치2단지 관리동 1층,서울특별시 강남구 강남구 개포로109길 21 대치2단지 관리동 1층,서울특별시 강남구청,37.481085,127.090874,2017-11-17
"베스트에코비어린이집",건축물경계로부터 10m까지,서울특별시,강남구,어린이집,서울특별시 강남구 금연환경 조성 및 간접흡연 피해방지 조례 제5조,,100000,02-3423-7115,서울특별시 강남구 강남구 광평로34길 55 강남데시앙포레아파트 105동 104,서울특별시 강남구 강남구 광평로34길 55 강남데시앙포레아파트 105동 104,서울특별시 강남구청,37.481106,127.084308,2017-11-17
"산들어린이집",건축물경계로부터 10m까지,서울특별시,강남구,어린이집,서울특별시 강남구 금연환경 조성 및 간접흡연 피해방지 조례 제5조,,100000,02-3423-7115,서울특별시 강남구 강남구 자곡로3길 45 3길 45,서울특별시 강남구 강남구 자곡로3길 45 3길 45,서울특별시 강남구청,37.481085,127.090874,2017-11-17
"숲속이네어린이집",건축물경계로부터 10m까지,서울특별시,강남구,어린이집,서울특별시 강남구 금연환경 조성 및 간접흡연 피해방지 조례 제5조,,100000,02-3423-7115,서울특별시 강남구 강남구 광평로34길 55 강남데시앙포레아파트 109동 101호,서울특별시 강남구 강남구 광평로34길 55 강남데시앙포레아파트 109동 101호,서울특별시 강남구청,37.514741,127.020556,2017-11-17
"신논현어린이집",건축물경계로부터 10m까지,서울특별시,강남구,어린이집,서울특별시 강남구 금연환경 조성 및 간접흡연 피해방지 조례 제5조,,100000,02-3423-7115,서울특별시 강남구 강남구 강남대로146길 28 논현신동아파밀리에 102동 108호,서울특별시 강남구 강남구 강남대로146길 28 논현신동아파밀리에 102동 108호,서울특별시 강남구청,37.492357,127.069369,2017-11-17
"삼성중앙역",삼성중앙역 1번출구로부터 10미터 이내,서울특별시,강남구,지하철역,서울특별시 강남구 금연환경 조성 및 간접흡연 피해방지 조례 제5조,,100000,02-3423-7115,서울특별시 강남구 봉은사로 501,서울특별시 강남구 삼성동 111-147,서울특별시 강남구청,37.512955,127.052884,2017-11-17
"삼성중앙역",삼성중앙역 2번출구로부터 10미터 이내,서울특별시,강남구,지하철역,서울특별시 강남구 금연환경 조성 및 간접흡연 피해방지 조례 제5조,,100000,02-3423-7115,서울특별시 강남구 봉은사로 501,서울특별시 강남구 삼성동 111-147,서울특별시 강남구청,37.512955,127.052884,2017-11-17
"삼성중앙역",삼성중앙역 3번출구로부터 10미터 이내,서울특별시,강남구,지하철역,서울특별시 강남구 금연환경 조성 및 간접흡연 피해방지 조례 제5조,,100000,02-3423-7115,서울특별시 강남구 봉은사로 501,서울특별시 강남구 삼성동 111-147,서울특별시 강남구청,37.512955,127.052884,2017-11-17
"삼성중앙역",삼성중앙역 4번출구로부터 10미터 이내,서울특별시,강남구,지하철역,서울특별시 강남구 금연환경 조성 및 간접흡연 피해방지 조례 제5조,,100000,02-3423-7115,서울특별시 강남구 봉은사로 501,서울특별시 강남구 삼성동 111-147,서울특별시 강남구청,37.512955,127.052884,2017-11-17
"삼성중앙역",삼성중앙역 5번출구로부터 10미터 이내,서울특별시,강남구,지하철역,서울특별시 강남구 금연환경 조성 및 간접흡연 피해방지 조례 제5조,,100000,02-3423-7115,서울특별시 강남구 봉은사로 501,서울특별시 강남구 삼성동 111-147,서울특별시 강남구청,37.512955,127.052884,2017-11-17
"삼성중앙역",삼성중앙역 6번출구로부터 10미터 이내,서울특별시,강남구,지하철역,서울특별시 강남구 금연환경 조성 및 간접흡연 피해방지 조례 제5조,,100000,02-3423-7115,서울특별시 강남구 봉은사로 501,서울특별시 강남구 삼성동 111-147,서울특별시 강남구청,37.512955,127.052884,2017-11-17
"삼성중앙역",삼성중앙역 7번출구로부터 10미터 이내,서울특별시,강남구,지하철역,서울특별시 강남구 금연환경 조성 및 간접흡연 피해방지 조례 제5조,,100000,02-3423-7115,서울특별시 강남구 봉은사로 501,서울특별시 강남구 삼성동 111-147,서울특별시 강남구청,37.512955,127.052884,2017-11-17
"학동역",학동역 5번출구로부터 10미터 이내,서울특별시,강남구,지하철역,서울특별시 강남구 금연환경 조성 및 간접흡연 피해방지 조례 제5조,,100000,02-3423-7115,서울특별시 강남구 학동로 180,서울특별시 강남구 논현동 279-67,서울특별시 강남구청,37.514193,127.031572,2017-11-17
"학동역",학동역 6번출구로부터 10미터 이내,서울특별시,강남구,지하철역,서울특별시 강남구 금연환경 조성 및 간접흡연 피해방지 조례 제5조,,100000,02-3423-7115,서울특별시 강남구 학동로 180,서울특별시 강남구 논현동 279-67,서울특별시 강남구청,37.514193,127.031572,2017-11-17
"학동역",학동역 7번출구로부터 10미터 이내,서울특별시,강남구,지하철역,서울특별시 강남구 금연환경 조성 및 간접흡연 피해방지 조례 제5조,,100000,02-3423-7115,서울특별시 강남구 학동로 180,서울특별시 강남구 논현동 279-67,서울특별시 강남구청,37.514193,127.031572,2017-11-17
"학동역",학동역 8번출구로부터 10미터 이내,서울특별시,강남구,지하철역,서울특별시 강남구 금연환경 조성 및 간접흡연 피해방지 조례 제5조,,100000,02-3423-7115,서울특별시 강남구 학동로 180,서울특별시 강남구 논현동 279-67,서울특별시 강남구청,37.514193,127.031572,2017-11-17
"학동역",학동역 9번출구로부터 10미터 이내,서울특별시,강남구,지하철역,서울특별시 강남구 금연환경 조성 및 간접흡연 피해방지 조례 제5조,,100000,02-3423-7115,서울특별시 강남구 학동로 180,서울특별시 강남구 논현동 279-67,서울특별시 강남구청,37.514193,127.031572,2017-11-17
"학동역",학동역 10번출구로부터 10미터 이내,서울특별시,강남구,지하철역,서울특별시 강남구 금연환경 조성 및 간접흡연 피해방지 조례 제5조,,100000,02-3423-7115,서울특별시 강남구 학동로 180,서울특별시 강남구 논현동 279-67,서울특별시 강남구청,37.514193,127.031572,2017-11-17
"학여울역",학여울역 1번출구로부터 10미터 이내,서울특별시,강남구,지하철역,서울특별시 강남구 금연환경 조성 및 간접흡연 피해방지 조례 제5조,,100000,02-3423-7115,서울특별시 강남구 남부순환로 3104,서울특별시 강남구 대치동 514-3,서울특별시 강남구청,37.496709,127.070528,2017-11-17
"한티역",한티역 1번출구로부터 10미터 이내,서울특별시,강남구,지하철역,서울특별시 강남구 금연환경 조성 및 간접흡연 피해방지 조례 제5조,,100000,02-3423-7115,서울특별시 강남구 선릉로 228,서울특별시 강남구 대치동 1011-28,서울특별시 강남구청,37.496225,127.052840,2017-11-17
"한티역",한티역 2번출구로부터 10미터 이내,서울특별시,강남구,지하철역,서울특별시 강남구 금연환경 조성 및 간접흡연 피해방지 조례 제5조,,100000,02-3423-7115,서울특별시 강남구 선릉로 228,서울특별시 강남구 대치동 1011-28,서울특별시 강남구청,37.496225,127.052840,2017-11-17
"한티역",한티역 3번출구로부터 10미터 이내,서울특별시,강남구,지하철역,서울특별시 강남구 금연환경 조성 및 간접흡연 피해방지 조례 제5조,,100000,02-3423-7115,서울특별시 강남구 선릉로 228,서울특별시 강남구 대치동 1011-28,서울특별시 강남구청,37.496225,127.052840,2017-11-17
"자운어린이집",건축물경계로부터 10m까지,서울특별시,강남구,어린이집,서울특별시 강남구 금연환경 조성 및 간접흡연 피해방지 조례 제5조,,100000,02-3423-7115,서울특별시 강남구 자곡로21,서울특별시 강남구 자곡로21,서울특별시 강남구청,37.482973,127.050233,2017-11-17
"즐거운어린이집",건축물경계로부터 10m까지,서울특별시,강남구,어린이집,서울특별시 강남구 금연환경 조성 및 간접흡연 피해방지 조례 제5조,,100000,02-3423-7115,서울특별시 강남구 개포로310,서울특별시 강남구 개포로310,서울특별시 강남구청,37.483536,127.101792,2017-11-17
"키즈열매어린이집",건축물경계로부터 10m까지,서울특별시,강남구,어린이집,서울특별시 강남구 금연환경 조성 및 간접흡연 피해방지 조례 제5조,,100000,02-3423-7115,서울특별시 강남구 자곡로21,서울특별시 강남구 자곡로21,서울특별시 강남구청,37.493679,127.048556,2017-11-17
"푸르내어린이집",건축물경계로부터 10m까지,서울특별시,강남구,어린이집,서울특별시 강남구 금연환경 조성 및 간접흡연 피해방지 조례 제5조,,100000,02-3423-7115,서울특별시 강남구 선릉로 221,서울특별시 강남구 선릉로 221 도곡렉슬아파트내,서울특별시 강남구청,37.485553,127.062680,2017-11-17
"피노키오어린이집",건축물경계로부터 10m까지,서울특별시,강남구,어린이집,서울특별시 강남구 금연환경 조성 및 간접흡연 피해방지 조례 제5조,,100000,02-3423-7115,서울특별시 강남구 삼성로 14,서울특별시 강남구 삼성로 14,서울특별시 강남구청,37.483536,127.101792,2017-11-17
"상록어린이집",건축물경계로부터 10m까지,서울특별시,강남구,어린이집,서울특별시 강남구 금연환경 조성 및 간접흡연 피해방지 조례 제5조,,100000,02-3423-7115,서울특별시 강남구 영동대로4길 10 공무원APT 9단지내(內),서울특별시 강남구 영동대로4길 10 공무원APT 9단지내(內),서울특별시 강남구청,37.488168,127.058553,2017-11-17
"소꿉 어린이집",건축물경계로부터 10m까지,서울특별시,강남구,어린이집,서울특별시 강남구 금연환경 조성 및 간접흡연 피해방지 조례 제5조,,100000,02-3423-7115,서울특별시 강남구 선릉로 8 215동 101호,서울특별시 강남구 선릉로 8 215동 101호,서울특별시 강남구청,37.481201,127.046979,2017-11-17
"솔샘어린이집",건축물경계로부터 10m까지,서울특별시,강남구,어린이집,서울특별시 강남구 금연환경 조성 및 간접흡연 피해방지 조례 제5조,,100000,02-3423-7115,서울특별시 강남구 개포로 516 705동 106호,서울특별시 강남구 개포로 516 705동 106호,서울특별시 강남구청,37.488831,127.053977,2017-11-17
"연세중앙어린이집",건축물경계로부터 10m까지,서울특별시,강남구,어린이집,서울특별시 강남구 금연환경 조성 및 간접흡연 피해방지 조례 제5조,,100000,02-3423-7115,서울특별시 강남구 개포로 516 604동 104호,서울특별시 강남구 개포로 516 604동 104호,서울특별시 강남구청,37.488831,127.053977,2017-11-17
"전원몬테소리어린이집",건축물경계로부터 10m까지,서울특별시,강남구,어린이집,서울특별시 강남구 금연환경 조성 및 간접흡연 피해방지 조례 제5조,,100000,02-3423-7115,서울특별시 강남구 개포로 516 609동 104호,서울특별시 강남구 개포로 516 609동 104호,서울특별시 강남구청,37.488831,127.053977,2017-11-17
"큰별어린이집",건축물경계로부터 10m까지,서울특별시,강남구,어린이집,서울특별시 강남구 금연환경 조성 및 간접흡연 피해방지 조례 제5조,,100000,02-3423-7115,서울특별시 강남구 개포로 516 603동 108호,서울특별시 강남구 개포로 516 603동 108호,서울특별시 강남구청,37.488831,127.053977,2017-11-17
"하늘어린이집",건축물경계로부터 10m까지,서울특별시,강남구,어린이집,서울특별시 강남구 금연환경 조성 및 간접흡연 피해방지 조례 제5조,,100000,02-3423-7115,서울특별시 강남구 삼성로 14 407동 107호,서울특별시 강남구 삼성로 14 407동 107호,서울특별시 강남구청,37.485535,127.053926,2017-11-17
"아이세상어린이집",건축물경계로부터 10m까지,서울특별시,강남구,어린이집,서울특별시 강남구 금연환경 조성 및 간접흡연 피해방지 조례 제5조,,100000,02-3423-7115,서울특별시 강남구 개포로22길 50 1200-2 101호,서울특별시 강남구 개포로22길 50 1200-2 101호,서울특별시 강남구청,37.475993,127.032333,2017-11-17
"국악고등학교",출입문으로부터 직선거리 50m까지,서울특별시,강남구,학교절대보호구역,서울특별시 강남구 금연환경 조성 및 간접흡연 피해방지 조례 제5조,,100000,02-3423-7115,서울특별시 강남구 개포로22길 65,서울특별시 강남구 개포동 1272번지,서울특별시 강남구청,37.485927,127.073436,2017-11-17
"밀알학교",출입문으로부터 직선거리 50m까지,서울특별시,강남구,학교절대보호구역,서울특별시 강남구 금연환경 조성 및 간접흡연 피해방지 조례 제5조,,100000,02-3423-7115,서울특별시 강남구 일원로 90,서울특별시 강남구 일원동 713번지,서울특별시 강남구청,37.514379,127.045670,2017-11-17
"서울정애학교",출입문으로부터 직선거리 50m까지,서울특별시,강남구,학교절대보호구역,서울특별시 강남구 금연환경 조성 및 간접흡연 피해방지 조례 제5조,,100000,02-3423-7115,서울특별시 강남구 봉은사로81길 16,서울특별시 강남구 삼성동 74-13,서울특별시 강남구청,37.510198,127.013500,2017-11-17
"강남역",강남역 1번출구로부터 10미터 이내,서울특별시,강남구,지하철역,서울특별시 강남구 금연환경 조성 및 간접흡연 피해방지 조례 제5조,,100000,02-3423-7115,서울특별시 강남구 강남대로 396,서울특별시 강남구 역삼동 858,서울특별시 강남구청,37.497112,127.028173,2017-11-17
"강남역",강남역 2번출구로부터 10미터 이내,서울특별시,강남구,지하철역,서울특별시 강남구 금연환경 조성 및 간접흡연 피해방지 조례 제5조,,100000,02-3423-7115,서울특별시 강남구 강남대로 396,서울특별시 강남구 역삼동 858,서울특별시 강남구청,37.497112,127.028173,2017-11-17
"강남역",강남역 3번출구로부터 10미터 이내,서울특별시,강남구,지하철역,서울특별시 강남구 금연환경 조성 및 간접흡연 피해방지 조례 제5조,,100000,02-3423-7115,서울특별시 강남구 강남대로 396,서울특별시 강남구 역삼동 858,서울특별시 강남구청,37.497112,127.028173,2017-11-17
"강남역",강남역 4번출구로부터 10미터 이내,서울특별시,강남구,지하철역,서울특별시 강남구 금연환경 조성 및 간접흡연 피해방지 조례 제5조,,100000,02-3423-7115,서울특별시 강남구 강남대로 396,서울특별시 강남구 역삼동 858,서울특별시 강남구청,37.497112,127.028173,2017-11-17
"선릉역",선릉역 1번출구로부터 10미터 이내,서울특별시,강남구,지하철역,서울특별시 강남구 금연환경 조성 및 간접흡연 피해방지 조례 제5조,,100000,02-3423-7115,서울특별시 강남구 테헤란로 340,서울특별시 강남구 삼성동 172-66,서울특별시 강남구청,37.504505,127.048930,2017-11-17
"선릉역",선릉역 2번출구로부터 10미터 이내,서울특별시,강남구,지하철역,서울특별시 강남구 금연환경 조성 및 간접흡연 피해방지 조례 제5조,,100000,02-3423-7115,서울특별시 강남구 테헤란로 340,서울특별시 강남구 삼성동 172-66,서울특별시 강남구청,37.504505,127.048930,2017-11-17
"선릉역",선릉역 3번출구로부터 10미터 이내,서울특별시,강남구,지하철역,서울특별시 강남구 금연환경 조성 및 간접흡연 피해방지 조례 제5조,,100000,02-3423-7115,서울특별시 강남구 테헤란로 340,서울특별시 강남구 삼성동 172-66,서울특별시 강남구청,37.504505,127.048930,2017-11-17
"선릉역",선릉역 4번출구로부터 10미터 이내,서울특별시,강남구,지하철역,서울특별시 강남구 금연환경 조성 및 간접흡연 피해방지 조례 제5조,,100000,02-3423-7115,서울특별시 강남구 테헤란로 340,서울특별시 강남구 삼성동 172-66,서울특별시 강남구청,37.504505,127.048930,2017-11-17
"선릉역",선릉역 5번출구로부터 10미터 이내,서울특별시,강남구,지하철역,서울특별시 강남구 금연환경 조성 및 간접흡연 피해방지 조례 제5조,,100000,02-3423-7115,서울특별시 강남구 테헤란로 340,서울특별시 강남구 삼성동 172-66,서울특별시 강남구청,37.504505,127.048930,2017-11-17
"선릉역",선릉역 6번출구로부터 10미터 이내,서울특별시,강남구,지하철역,서울특별시 강남구 금연환경 조성 및 간접흡연 피해방지 조례 제5조,,100000,02-3423-7115,서울특별시 강남구 테헤란로 340,서울특별시 강남구 삼성동 172-66,서울특별시 강남구청,37.504505,127.048930,2017-11-17
"선릉역",선릉역 7번출구로부터 10미터 이내,서울특별시,강남구,지하철역,서울특별시 강남구 금연환경 조성 및 간접흡연 피해방지 조례 제5조,,100000,02-3423-7115,서울특별시 강남구 테헤란로 340,서울특별시 강남구 삼성동 172-66,서울특별시 강남구청,37.504505,127.048930,2017-11-17
"선릉역",선릉역 8번출구로부터 10미터 이내,서울특별시,강남구,지하철역,서울특별시 강남구 금연환경 조성 및 간접흡연 피해방지 조례 제5조,,100000,02-3423-7115,서울특별시 강남구 테헤란로 340,서울특별시 강남구 삼성동 172-66,서울특별시 강남구청,37.504505,127.048930,2017-11-17
"선릉역",선릉역 9번출구로부터 10미터 이내,서울특별시,강남구,지하철역,서울특별시 강남구 금연환경 조성 및 간접흡연 피해방지 조례 제5조,,100000,02-3423-7115,서울특별시 강남구 테헤란로 340,서울특별시 강남구 삼성동 172-66,서울특별시 강남구청,37.504505,127.048930,2017-11-17
"선릉역",선릉역 10번출구로부터 10미터 이내,서울특별시,강남구,지하철역,서울특별시 강남구 금연환경 조성 및 간접흡연 피해방지 조례 제5조,,100000,02-3423-7115,서울특별시 강남구 테헤란로 340,서울특별시 강남구 삼성동 172-66,서울특별시 강남구청,37.504505,127.048930,2017-11-17
"선정릉역",선정릉역 1번출구로부터 10미터 이내,서울특별시,강남구,지하철역,서울특별시 강남구 금연환경 조성 및 간접흡연 피해방지 조례 제5조,,100000,02-3423-7115,서울특별시 강남구 선릉로 580,서울특별시 강남구 삼성동 111-114,서울특별시 강남구청,37.510266,127.043806,2017-11-17
"선정릉역",선정릉역 2번출구로부터 10미터 이내,서울특별시,강남구,지하철역,서울특별시 강남구 금연환경 조성 및 간접흡연 피해방지 조례 제5조,,100000,02-3423-7115,서울특별시 강남구 선릉로 580,서울특별시 강남구 삼성동 111-114,서울특별시 강남구청,37.510266,127.043806,2017-11-17
"윗반 고개공원",시설전체,서울특별시,강남구,공원,서울특별시 강남구 금연환경 조성 및 간접흡연 피해방지 조례 제5조,74,100000,02-3423-7115,서울특별시 강남구 세곡동  104-11,서울특별시 강남구 세곡동  104-11,서울특별시 강남구청,37.465918,127.091949,2017-11-17
"윗반 고개공원",시설전체,서울특별시,강남구,공원,서울특별시 강남구 금연환경 조성 및 간접흡연 피해방지 조례 제5조,76,100000,02-3423-7115,서울특별시 강남구 세곡동  101,서울특별시 강남구 세곡동  101,서울특별시 강남구청,37.465829,127.091944,2017-11-17
"윗반 고개공원",시설전체,서울특별시,강남구,공원,서울특별시 강남구 금연환경 조성 및 간접흡연 피해방지 조례 제5조,67,100000,02-3423-7115,서울특별시 강남구 세곡동  102-28,서울특별시 강남구 세곡동  102-28,서울특별시 강남구청,37.465707,127.091777,2017-11-17
"윗반 고개공원",시설전체,서울특별시,강남구,공원,서울특별시 강남구 금연환경 조성 및 간접흡연 피해방지 조례 제5조,1,100000,02-3423-7115,서울특별시 강남구 세곡동 102-29,서울특별시 강남구 세곡동 102-29,서울특별시 강남구청,37.465644,127.091751,2017-11-17
"해찬나래어린이집",건축물경계로부터 10m까지,서울특별시,강남구,어린이집,서울특별시 강남구 금연환경 조성 및 간접흡연 피해방지 조례 제5조,,100000,02-3423-7115,서울특별시 강남구 자곡로 21,서울특별시 강남구 자곡로 21 LH푸르지오 203동 102호,서울특별시 강남구청,37.504008,127.025290,2017-11-17
"이베이베이트리어린이집",건축물경계로부터 10m까지,서울특별시,강남구,어린이집,서울특별시 강남구 금연환경 조성 및 간접흡연 피해방지 조례 제5조,,100000,02-3423-7115,서울특별시 강남구 테헤란로25길 53,서울특별시 강남구 테헤란로 25길 53,서울특별시 강남구청,37.488031,127.065469,2017-11-17
"우리어린이집",건축물경계로부터 10m까지,서울특별시,강남구,어린이집,서울특별시 강남구 금연환경 조성 및 간접흡연 피해방지 조례 제5조,,100000,02-3423-7115,서울특별시 강남구 삼성로 14,서울특별시 강남구 삼성로 14 주공아파트내,서울특별시 강남구청,37.514302,127.032161,2017-11-17
LH 서울어린이집,건축물경계로부터 10m까지,서울특별시,강남구,어린이집,서울특별시 강남구 금연환경 조성 및 간접흡연 피해방지 조례 제5조,,100000,02-3423-7115,서울특별시 강남구 선릉로121길 12,서울특별시 강남구 선릉로 121길 12,서울특별시 강남구청,37.487299,127.094354,2017-11-17
"풀무원어린이집",건축물경계로부터 10m까지,서울특별시,강남구,어린이집,서울특별시 강남구 금연환경 조성 및 간접흡연 피해방지 조례 제5조,,100000,02-3423-7115,서울특별시 강남구 광평로 280,서울특별시 강남구 광평로 280,서울특별시 강남구청,37.513468,127.037143,2017-11-17
"삼성 꼬마숲 어린이집",건축물경계로부터 10m까지,서울특별시,강남구,어린이집,서울특별시 강남구 금연환경 조성 및 간접흡연 피해방지 조례 제5조,,100000,02-3423-7115,서울특별시 강남구 봉은사로61길 36,서울특별시 강남구 봉은사로 61길 36,서울특별시 강남구청,37.480947,127.104505,2017-11-17
"무지개어린이집",건축물경계로부터 10m까지,서울특별시,강남구,어린이집,서울특별시 강남구 금연환경 조성 및 간접흡연 피해방지 조례 제5조,,100000,02-3423-7115,서울특별시 강남구 자곡로260 한양수자인아파트 407동 106호,서울특별시 강남구 자곡로260 한양수자인아파트 407동 106호,서울특별시 강남구청,37.480988,127.091373,2017-11-17
"미소별어린이집",건축물경계로부터 10m까지,서울특별시,강남구,어린이집,서울특별시 강남구 금연환경 조성 및 간접흡연 피해방지 조례 제5조,,100000,02-3423-7115,서울특별시 강남구 자곡로260 한양수자인아파트 402동 102호,서울특별시 강남구 자곡로260 한양수자인아파트 402동 102호,서울특별시 강남구청,37.516244,127.039786,2017-11-17
"성아어린이집",건축물경계로부터 10m까지,서울특별시,강남구,어린이집,서울특별시 강남구 금연환경 조성 및 간접흡연 피해방지 조례 제5조,,100000,02-3423-7115,서울특별시 강남구 논현로32길 16,서울특별시 강남구 논현로32길 16,서울특별시 강남구청,37.484040,127.026073,2017-11-17
"대웅 리틀베어 어린이집",건축물경계로부터 10m까지,서울특별시,강남구,어린이집,서울특별시 강남구 금연환경 조성 및 간접흡연 피해방지 조례 제5조,,100000,02-3423-7115,서울특별시 강남구 봉은사로114길 12,서울특별시 강남구 봉은사로114길 12,서울특별시 강남구청,37.514386,127.047946,2017-11-17
"우리어린이집",건축물경계로부터 10m까지,서울특별시,강남구,어린이집,서울특별시 강남구 금연환경 조성 및 간접흡연 피해방지 조례 제5조,,100000,02-3423-7115,서울특별시 강남구 봉은사로114길 13 서울의료원내(內),서울특별시 강남구 봉은사로114길 13 서울의료원내(內),서울특별시 강남구청,37.514080,127.048968,2017-11-17
"무역센터 꿈나무어린이집",건축물경계로부터 10m까지,서울특별시,강남구,어린이집,서울특별시 강남구 금연환경 조성 및 간접흡연 피해방지 조례 제5조,,100000,02-3423-7115,서울특별시 강남구 삼성1동 COEX 컨벤션센터 2층,서울특별시 강남구 삼성1동 COEX 컨벤션센터 2층,서울특별시 강남구청,37.513062,127.056456,2017-11-17
"삼성어린이집",건축물경계로부터 10m까지,서울특별시,강남구,어린이집,서울특별시 강남구 금연환경 조성 및 간접흡연 피해방지 조례 제5조,,100000,02-3423-7115,서울특별시 강남구 영동대로122길 7-6,서울특별시 강남구 영동대로122길 7-6,서울특별시 강남구청,37.517191,127.042141,2017-11-17
"방죽주유소",영업허가 면적 경계선까지,서울특별시,강남구,주유소,서울특별시 강남구 금연환경 조성 및 간접흡연 피해방지 조례 제5조,,100000,02-3423-7115,서울특별시 강남구 밤고개로 215,서울특별시 강남구 율현동 240,서울특별시 강남구청,37.515264,127.025239,2017-11-17
"논현동주유소",영업허가 면적 경계선까지,서울특별시,강남구,주유소,서울특별시 강남구 금연환경 조성 및 간접흡연 피해방지 조례 제5조,,100000,02-3423-7115,서울특별시 강남구 학동로 229,서울특별시 강남구 학동로 229(논현동 89-11),서울특별시 강남구청,37.501418,127.050311,2017-11-17
"개포주공APT(803동) 앞",택시승차대로부터 10m까지,서울특별시,강남구,택시승강장,서울특별시 강남구 금연환경 조성 및 간접흡연 피해방지 조례 제5조,,100000,02-3423-7115,서울특별시 강남구 영동대로4길 20,서울특별시 강남구 일원동 691,서울특별시 강남구청,37.514638,127.046713,2017-11-17
"선릉역 위",택시승차대로부터 10m까지,서울특별시,강남구,택시승강장,서울특별시 강남구 금연환경 조성 및 간접흡연 피해방지 조례 제5조,,100000,02-3423-7115,서울특별시 강남구 삼성동 705,서울특별시 강남구 삼성동 705,서울특별시 강남구청,37.482473,127.076539,2017-11-17
"목련타운109동 앞",택시승차대로부터 10m까지,서울특별시,강남구,택시승강장,서울특별시 강남구 금연환경 조성 및 간접흡연 피해방지 조례 제5조,,100000,02-3423-7115,서울특별시 강남구 일원로 127,서울특별시 강남구 일원본동 735,서울특별시 강남구청,37.494226,127.055080,2017-11-17
"대곡초등앞(대치역6번출구)",택시승차대로부터 10m까지,서울특별시,강남구,택시승강장,서울특별시 강남구 금연환경 조성 및 간접흡연 피해방지 조례 제5조,,100000,02-3423-7115,서울특별시 강남구 삼성로 156,서울특별시 강남구 대치동 509,서울특별시 강남구청,37.500684,127.056345,2017-11-17
"엠마케익건너(세븐일레븐앞)",택시승차대로부터 10m까지,서울특별시,강남구,택시승강장,서울특별시 강남구 금연환경 조성 및 간접흡연 피해방지 조례 제5조,,100000,02-3423-7115,서울특별시 강남구 남부순환로 2936,서울특별시 강남구 대치2동 507,서울특별시 강남구청,37.494535,127.053878,2017-11-17
"대치역(대한투자신탁) 앞",택시승차대로부터 10m까지,서울특별시,강남구,택시승강장,서울특별시 강남구 금연환경 조성 및 간접흡연 피해방지 조례 제5조,,100000,02-3423-7115,서울특별시 강남구 남부순환로 2947,서울특별시 강남구 대치1동 599,서울특별시 강남구청,37.518041,127.055212,2017-11-17
"코스모타워건너(SK케미칼)",택시승차대로부터 10m까지,서울특별시,강남구,택시승강장,서울특별시 강남구 금연환경 조성 및 간접흡연 피해방지 조례 제5조,,100000,02-3423-7115,서울특별시 강남구 영동대로114길 63,서울특별시 강남구 삼성동 98-7,서울특별시 강남구청,37.514638,127.046713,2017-11-17
"코스모타워 앞",택시승차대로부터 10m까지,서울특별시,강남구,택시승강장,서울특별시 강남구 금연환경 조성 및 간접흡연 피해방지 조례 제5조,,100000,02-3423-7115,서울특별시 강남구 삼성동 1008-3,서울특별시 강남구 삼성동 1008-3,서울특별시 강남구청,37.498324,127.021487,2017-11-17
"시티은행 앞",택시승차대로부터 10m까지,서울특별시,강남구,택시승강장,서울특별시 강남구 금연환경 조성 및 간접흡연 피해방지 조례 제5조,,100000,02-3423-7115,서울특별시 강남구 테헤란로 114,서울특별시 강남구 역삼동 824-3,서울특별시 강남구청,37.505895,127.015500,2017-11-17
"농협논현지점 앞",택시승차대로부터 10m까지,서울특별시,강남구,택시승강장,서울특별시 강남구 금연환경 조성 및 간접흡연 피해방지 조례 제5조,,100000,02-3423-7115,서울특별시 강남구 강남대로 488,서울특별시 강남구 논현1동 199,서울특별시 강남구청,37.488155,127.042412,2017-11-17
"타워팰리스2차 @ 앞",택시승차대로부터 10m까지,서울특별시,강남구,택시승강장,서울특별시 강남구 금연환경 조성 및 간접흡연 피해방지 조례 제5조,,100000,02-3423-7115,서울특별시 강남구 도곡동 467-6,서울특별시 강남구 도곡동 467-6,서울특별시 강남구청,37.495075,127.041815,2017-11-17
"강남역",강남역 11번출구로부터 10미터 이내,서울특별시,강남구,지하철역,서울특별시 강남구 금연환경 조성 및 간접흡연 피해방지 조례 제5조,,100000,02-3423-7115,서울특별시 강남구 강남대로 396,서울특별시 강남구 역삼동 858,서울특별시 강남구청,37.497112,127.028173,2017-11-17
"강남구청역",강남구청역 1번출구로부터 10미터 이내,서울특별시,강남구,지하철역,서울특별시 강남구 금연환경 조성 및 간접흡연 피해방지 조례 제5조,,100000,02-3423-7115,서울특별시 강남구 학동로 346,서울특별시 강남구 삼성동 111-44,서울특별시 강남구청,37.517416,127.041288,2017-11-17
"강남구청역",강남구청역 2번출구로부터 10미터 이내,서울특별시,강남구,지하철역,서울특별시 강남구 금연환경 조성 및 간접흡연 피해방지 조례 제5조,,100000,02-3423-7115,서울특별시 강남구 학동로 346,서울특별시 강남구 삼성동 111-44,서울특별시 강남구청,37.517416,127.041288,2017-11-17
"강남구청역",강남구청역 3번출구로부터 10미터 이내,서울특별시,강남구,지하철역,서울특별시 강남구 금연환경 조성 및 간접흡연 피해방지 조례 제5조,,100000,02-3423-7115,서울특별시 강남구 학동로 346,서울특별시 강남구 삼성동 111-44,서울특별시 강남구청,37.517416,127.041288,2017-11-17
"강남구청역",강남구청역 4번출구로부터 10미터 이내,서울특별시,강남구,지하철역,서울특별시 강남구 금연환경 조성 및 간접흡연 피해방지 조례 제5조,,100000,02-3423-7115,서울특별시 강남구 학동로 346,서울특별시 강남구 삼성동 111-44,서울특별시 강남구청,37.517416,127.041288,2017-11-17
"개포동역",개포동역 1번출구로부터 10미터 이내,서울특별시,강남구,지하철역,서울특별시 강남구 금연환경 조성 및 간접흡연 피해방지 조례 제5조,,100000,02-3423-7115,서울특별시 강남구 개포로 420,서울특별시 강남구 개포동 195,서울특별시 강남구청,37.489354,127.066502,2017-11-17
"개포동역",개포동역 2번출구로부터 10미터 이내,서울특별시,강남구,지하철역,서울특별시 강남구 금연환경 조성 및 간접흡연 피해방지 조례 제5조,,100000,02-3423-7115,서울특별시 강남구 개포로 420,서울특별시 강남구 개포동 195,서울특별시 강남구청,37.489354,127.066502,2017-11-17
"개포동역",개포동역 3번출구로부터 10미터 이내,서울특별시,강남구,지하철역,서울특별시 강남구 금연환경 조성 및 간접흡연 피해방지 조례 제5조,,100000,02-3423-7115,서울특별시 강남구 개포로 420,서울특별시 강남구 개포동 195,서울특별시 강남구청,37.489354,127.066502,2017-11-17
"개포동역",개포동역 4번출구로부터 10미터 이내,서울특별시,강남구,지하철역,서울특별시 강남구 금연환경 조성 및 간접흡연 피해방지 조례 제5조,,100000,02-3423-7115,서울특별시 강남구 개포로 420,서울특별시 강남구 개포동 195,서울특별시 강남구청,37.489354,127.066502,2017-11-17
"개포동역",개포동역 5번출구로부터 10미터 이내,서울특별시,강남구,지하철역,서울특별시 강남구 금연환경 조성 및 간접흡연 피해방지 조례 제5조,,100000,02-3423-7115,서울특별시 강남구 개포로 420,서울특별시 강남구 개포동 195,서울특별시 강남구청,37.489354,127.066502,2017-11-17
"개포동역",개포동역 6번출구로부터 10미터 이내,서울특별시,강남구,지하철역,서울특별시 강남구 금연환경 조성 및 간접흡연 피해방지 조례 제5조,,100000,02-3423-7115,서울특별시 강남구 개포로 420,서울특별시 강남구 개포동 195,서울특별시 강남구청,37.489354,127.066502,2017-11-17
"개포동역",개포동역 7번출구로부터 10미터 이내,서울특별시,강남구,지하철역,서울특별시 강남구 금연환경 조성 및 간접흡연 피해방지 조례 제5조,,100000,02-3423-7115,서울특별시 강남구 개포로 420,서울특별시 강남구 개포동 195,서울특별시 강남구청,37.489354,127.066502,2017-11-17
"독골공원",시설전체,서울특별시,강남구,공원,서울특별시 강남구 금연환경 조성 및 간접흡연 피해방지 조례 제5조,10023,100000,02-3423-7115,서울특별시 강남구 남부순환로378길 39,서울특별시 강남구 도곡동 461,서울특별시 강남구청,37.484534,127.029315,2017-11-17
"탄천공원",시설전체,서울특별시,강남구,공원,서울특별시 강남구 금연환경 조성 및 간접흡연 피해방지 조례 제5조,10011,100000,02-3423-7115,서울특별시 강남구 광평로56길 11,서울특별시 강남구 수서동 722,서울특별시 강남구청,37.487418,127.088765,2017-11-17
"개포동공원",시설전체,서울특별시,강남구,공원,서울특별시 강남구 금연환경 조성 및 간접흡연 피해방지 조례 제5조,9706,100000,02-3423-7115,서울특별시 강남구 개포로 509,서울특별시 강남구 개포동 182-1 외2필지,서울특별시 강남구청,37.489668,127.050771,2017-11-17
"청룡공원",시설전체,서울특별시,강남구,공원,서울특별시 강남구 금연환경 조성 및 간접흡연 피해방지 조례 제5조,9367,100000,02-3423-7115,서울특별시 강남구 언주로 110,서울특별시 강남구 개포동 649-1,서울특별시 강남구청,37.485576,127.036850,2017-11-17
"은곡마을공원",시설전체,서울특별시,강남구,공원,서울특별시 강남구 금연환경 조성 및 간접흡연 피해방지 조례 제5조,2686,100000,02-3423-7115,서울특별시 강남구 세곡동 369-3,서울특별시 강남구 세곡동 369-3,서울특별시 강남구청,37.468022,127.082934,2017-11-17
"쟁골공원",시설전체,서울특별시,강남구,공원,서울특별시 강남구 금연환경 조성 및 간접흡연 피해방지 조례 제5조,468,100000,02-3423-7115,서울특별시 강남구 세곡동  233-2,서울특별시 강남구 세곡동  233-2,서울특별시 강남구청,37.459129,127.083085,2017-11-17
"못골공원",시설전체,서울특별시,강남구,공원,서울특별시 강남구 금연환경 조성 및 간접흡연 피해방지 조례 제5조,698,100000,02-3423-7115,서울특별시 강남구 자곡동 447-23,서울특별시 강남구 자곡동 447-23,서울특별시 강남구청,37.473555,127.082651,2017-11-17
"못골공원",시설전체,서울특별시,강남구,공원,서울특별시 강남구 금연환경 조성 및 간접흡연 피해방지 조례 제5조,51,100000,02-3423-7115,서울특별시 강남구 자곡동 421-1,서울특별시 강남구 자곡동 421-1,서울특별시 강남구청,37.473667,127.100371,2017-11-17
"윗방죽마을공원",시설전체,서울특별시,강남구,공원,서울특별시 강남구 금연환경 조성 및 간접흡연 피해방지 조례 제5조,935,100000,02-3423-7115,서울특별시 강남구 율현동 308-29,서울특별시 강남구 율현동 308-29,서울특별시 강남구청,37.470258,127.087150,2017-11-17
"아랫방죽마을공원",시설전체,서울특별시,강남구,공원,서울특별시 강남구 금연환경 조성 및 간접흡연 피해방지 조례 제5조,386,100000,02-3423-7115,서울특별시 강남구 율현동 194-1,서울특별시 강남구 율현동 194-1,서울특별시 강남구청,37.473258,127.090695,2017-11-17
"충현1 공원",시설전체,서울특별시,강남구,공원,서울특별시 강남구 금연환경 조성 및 간접흡연 피해방지 조례 제5조,1538,100000,02-3423-7115,서울특별시 강남구 역삼동 666-2,서울특별시 강남구 역삼동 666-2,서울특별시 강남구청,37.504682,127.019012,2017-11-17
"충현2 공원",시설전체,서울특별시,강남구,공원,서울특별시 강남구 금연환경 조성 및 간접흡연 피해방지 조례 제5조,581,100000,02-3423-7115,서울특별시 강남구 역삼동 663-19,서울특별시 강남구 역삼동 663-19,서울특별시 강남구청,37.505350,127.020730,2017-11-17
"충현2 공원",시설전체,서울특별시,강남구,공원,서울특별시 강남구 금연환경 조성 및 간접흡연 피해방지 조례 제5조,603,100000,02-3423-7115,서울특별시 강남구 역삼동 663-20,서울특별시 강남구 역삼동 663-20,서울특별시 강남구청,37.505412,127.020960,2017-11-17
"삼성동차고지공원",시설전체,서울특별시,강남구,공원,서울특별시 강남구 금연환경 조성 및 간접흡연 피해방지 조례 제5조,1896,100000,02-3423-7115,서울특별시 강남구 봉은사로114길 13,서울특별시 강남구 삼성1동 171-4,서울특별시 강남구청,37.572784,126.995859,2017-11-17
"청담가로공원",시설전체,서울특별시,강남구,공원,서울특별시 강남구 금연환경 조성 및 간접흡연 피해방지 조례 제5조,5600,100000,02-3423-7115,서울특별시 강남구 삼성동80외 7필지,서울특별시 강남구 삼성동80외 7필지,서울특별시 강남구청,37.527601,126.915466,2017-11-17
"쌍용가로공원",시설전체,서울특별시,강남구,공원,서울특별시 강남구 금연환경 조성 및 간접흡연 피해방지 조례 제5조,3200,100000,02-3423-7115,서울특별시 강남구 대치동 5-3외 2필지,서울특별시 강남구 대치동 5-3외 2필지,서울특별시 강남구청,37.472741,127.043094,2017-11-17
"대치동 자투리녹지",시설전체,서울특별시,강남구,공원,서울특별시 강남구 금연환경 조성 및 간접흡연 피해방지 조례 제5조,386,100000,02-3423-7115,서울특별시 강남구 도곡로78길 22,서울특별시 강남구 대치동1017-3외 1필지,서울특별시 강남구청,37.484298,127.087789,2017-11-17
"수서동 궁마을 쉼터",시설전체,서울특별시,강남구,공원,서울특별시 강남구 금연환경 조성 및 간접흡연 피해방지 조례 제5조,620,100000,02-3423-7115,서울특별시 강남구 광평로 220,서울특별시 강남구 수서동 501-1,서울특별시 강남구청,37.484503,127.096490,2017-11-17
"삼성동 자투리녹지",시설전체,서울특별시,강남구,공원,서울특별시 강남구 금연환경 조성 및 간접흡연 피해방지 조례 제5조,148,100000,02-3423-7115,서울특별시 강남구 봉은사로69길 17,서울특별시 강남구 삼성동 46-15,서울특별시 강남구청,37.523376,127.015272,2017-11-17
"어린이공원1(어린이공원)",시설전체,서울특별시,강남구,공원,서울특별시 강남구 금연환경 조성 및 간접흡연 피해방지 조례 제5조,,100000,02-3423-7115,서울특별시 강남구 세곡동 522-1,서울특별시 강남구 세곡동 522-1,서울특별시 강남구청,37.470726,127.085081,2017-11-17
"㈜소모석유쎈트럴주유소",영업허가 면적 경계선까지,서울특별시,강남구,주유소,서울특별시 강남구 금연환경 조성 및 간접흡연 피해방지 조례 제5조,,100000,02-3423-7115,서울특별시 강남구 삼성로 335,"서울특별시 강남구 삼성로 335(대치동 913-18,19)",서울특별시 강남구청,37.498394,127.068721,2017-11-17
"학여울주유소",영업허가 면적 경계선까지,서울특별시,강남구,주유소,서울특별시 강남구 금연환경 조성 및 간접흡연 피해방지 조례 제5조,,100000,02-3423-7115,서울특별시 강남구 남부순환로 3170,서울특별시 강남구 대치동 2-7,서울특별시 강남구청,37.511696,127.044851,2017-11-17
GS칼텍스㈜직영 삼성로점,영업허가 면적 경계선까지,서울특별시,강남구,주유소,서울특별시 강남구 금연환경 조성 및 간접흡연 피해방지 조례 제5조,,100000,02-3423-7115,서울특별시 강남구 삼성로 563,서울특별시 강남구 삼성동 119-18,서울특별시 강남구청,37.497796,127.066810,2017-11-17
SK네트웍스㈜금성주유소,영업허가 면적 경계선까지,서울특별시,강남구,주유소,서울특별시 강남구 금연환경 조성 및 간접흡연 피해방지 조례 제5조,,100000,02-3423-7115,서울특별시 강남구 테헤란로 619,서울특별시 강남구 삼성동 169-17,서울특별시 강남구청,37.518502,127.055906,2017-11-17
GS칼텍스(주)동호점,영업허가 면적 경계선까지,서울특별시,강남구,주유소,서울특별시 강남구 금연환경 조성 및 간접흡연 피해방지 조례 제5조,,100000,02-3423-7115,서울특별시 강남구 봉은사로113길 51,서울특별시 강남구 삼성동 97-1,서울특별시 강남구청,37.513475,127.045031,2017-11-17
SK네트웍스㈜오천주유소,영업허가 면적 경계선까지,서울특별시,강남구,주유소,서울특별시 강남구 금연환경 조성 및 간접흡연 피해방지 조례 제5조,,100000,02-3423-7115,서울특별시 강남구 봉은사로 503,서울특별시 강남구 삼성동 71-9,서울특별시 강남구청,37.525797,127.017762,2017-11-17
"새서울주유소",영업허가 면적 경계선까지,서울특별시,강남구,주유소,서울특별시 강남구 금연환경 조성 및 간접흡연 피해방지 조례 제5조,,100000,02-3423-7115,서울특별시 강남구 압구정로 154,서울특별시 강남구 신사동 575-1,서울특별시 강남구청,37.492220,127.033201,2017-11-17
"진달래주유소",영업허가 면적 경계선까지,서울특별시,강남구,주유소,서울특별시 강남구 금연환경 조성 및 간접흡연 피해방지 조례 제5조,,100000,02-3423-7115,서울특별시 강남구 도곡로 208,"서울특별시 강남구 도곡동 543-2,3",서울특별시 강남구청,37.528788,127.025392,2017-11-17
"현대오일뱅크㈜직영한양주유소",영업허가 면적 경계선까지,서울특별시,강남구,주유소,서울특별시 강남구 금연환경 조성 및 간접흡연 피해방지 조례 제5조,,100000,02-3423-7115,서울특별시 강남구 압구정로 302,서울특별시 강남구 신사동 638(압구정로 302),서울특별시 강남구청,37.472348,127.042949,2017-11-17
"개포주유소",영업허가 면적 경계선까지,서울특별시,강남구,주유소,서울특별시 강남구 금연환경 조성 및 간접흡연 피해방지 조례 제5조,,100000,02-3423-7115,서울특별시 강남구 논현로2길 8,"서울특별시 강남구 개포동 1164-2,3,4",서울특별시 강남구청,37.482767,127.052018,2017-11-17
"남부주유소",영업허가 면적 경계선까지,서울특별시,강남구,주유소,서울특별시 강남구 금연환경 조성 및 간접흡연 피해방지 조례 제5조,,100000,02-3423-7115,서울특별시 강남구 선릉로 34,"서울특별시 강남구 개포동 167-9,10",서울특별시 강남구청,37.497125,127.061653,2017-11-17
"대치동주유소",영업허가 면적 경계선까지,서울특별시,강남구,주유소,서울특별시 강남구 금연환경 조성 및 간접흡연 피해방지 조례 제5조,,100000,02-3423-7115,서울특별시 강남구 영동대로 202,서울특별시 강남구 대치동 50-8,서울특별시 강남구청,37.518510,127.019478,2017-11-17
"논현주유소",영업허가 면적 경계선까지,서울특별시,강남구,주유소,서울특별시 강남구 금연환경 조성 및 간접흡연 피해방지 조례 제5조,,100000,02-3423-7115,서울특별시 강남구 논현로 747,서울특별시 강남구 논현동 8-11,서울특별시 강남구청,37.498350,127.029863,2017-11-17
GS칼텍스㈜역삼점,영업허가 면적 경계선까지,서울특별시,강남구,주유소,서울특별시 강남구 금연환경 조성 및 간접흡연 피해방지 조례 제5조,,100000,02-3423-7115,서울특별시 강남구 논현로 426,"서울특별시 강남구 역삼동 726-13,14",서울특별시 강남구청,37.491037,127.079051,2017-11-17
"일원주유소",영업허가 면적 경계선까지,서울특별시,강남구,주유소,서울특별시 강남구 금연환경 조성 및 간접흡연 피해방지 조례 제5조,,100000,02-3423-7115,서울특별시 강남구 양재대로55길 3,서울특별시 강남구 일원동 645-13,서울특별시 강남구청,37.525312,127.025013,2017-11-17
"도곡렉슬@ 입구",택시승차대로부터 10m까지,서울특별시,강남구,택시승강장,서울특별시 강남구 금연환경 조성 및 간접흡연 피해방지 조례 제5조,,100000,02-3423-7115,서울특별시 강남구 도곡로 320,서울특별시 강남구 도곡동 538,서울특별시 강남구청,37.503233,127.032865,2017-11-17
"르네상스호텔 앞",택시승차대로부터 10m까지,서울특별시,강남구,택시승강장,서울특별시 강남구 금연환경 조성 및 간접흡연 피해방지 조례 제5조,,100000,02-3423-7115,서울특별시 강남구 테헤란로 237,서울특별시 강남구 역삼동 676,서울특별시 강남구청,37.503687,127.038906,2017-11-17
"제일정형외과 앞",택시승차대로부터 10m까지,서울특별시,강남구,택시승강장,서울특별시 강남구 금연환경 조성 및 간접흡연 피해방지 조례 제5조,,100000,02-3423-7115,서울특별시 강남구 테헤란로 328,서울특별시 강남구 역삼동 708,서울특별시 강남구청,37.496459,127.046478,2017-11-17
"나산빌딩 앞",택시승차대로부터 10m까지,서울특별시,강남구,택시승강장,서울특별시 강남구 금연환경 조성 및 간접흡연 피해방지 조례 제5조,,100000,02-3423-7115,서울특별시 강남구 도곡로 408,서울특별시 강남구 대치동 1024,서울특별시 강남구청,37.515582,127.057510,2017-11-17
"서울개원초등학교",출입문으로부터 직선거리 50m까지,서울특별시,강남구,학교절대보호구역,서울특별시 강남구 금연환경 조성 및 간접흡연 피해방지 조례 제5조,,100000,02-3423-7115,서울특별시 강남구 선릉로 29,서울특별시 강남구 선릉로 29,서울특별시 강남구청,37.486171,127.049021,2017-11-17
"서울개일초등학교",출입문으로부터 직선거리 50m까지,서울특별시,강남구,학교절대보호구역,서울특별시 강남구 금연환경 조성 및 간접흡연 피해방지 조례 제5조,,100000,02-3423-7115,서울특별시 강남구 개포로 401,서울특별시 강남구 개포동 174번지,서울특별시 강남구청,37.486644,127.062233,2017-11-17
"서울개포초등학교",출입문으로부터 직선거리 50m까지,서울특별시,강남구,학교절대보호구역,서울특별시 강남구 금연환경 조성 및 간접흡연 피해방지 조례 제5조,,100000,02-3423-7115,서울특별시 강남구 영동대로3길 45,서울특별시 강남구 개포2동 188번지,서울특별시 강남구청,37.480739,127.043108,2017-11-17
"서울구룡초등학교",출입문으로부터 직선거리 50m까지,서울특별시,강남구,학교절대보호구역,서울특별시 강남구 금연환경 조성 및 간접흡연 피해방지 조례 제5조,,100000,02-3423-7115,서울특별시 강남구 개포로 263,서울특별시 강남구 개포4동 655번지,서울특별시 강남구청,37.508186,127.017277,2017-11-17
"엔젤빅스맘 어린이집",건축물경계로부터 10m까지,서울특별시,강남구,어린이집,서울특별시 강남구 금연환경 조성 및 간접흡연 피해방지 조례 제5조,,100000,02-3423-7115,서울특별시 강남구 헌릉로590길 63 세곡리엔파크 아파트 512동 102호,서울특별시 강남구 세곡동 525 세곡리엔파크 아파트 512동 102호,서울특별시 강남구청,37.460227,127.101544,2017-11-17
"엘림어린이집",건축물경계로부터 10m까지,서울특별시,강남구,어린이집,서울특별시 강남구 금연환경 조성 및 간접흡연 피해방지 조례 제5조,,100000,02-3423-7115,서울특별시 강남구 광평로34길 55 강남데시앙포레아파트 관리동,서울특별시 강남구 수서동 559 강남데시앙포레아파트 관리동,서울특별시 강남구청,37.481080,127.093063,2017-11-17
"예쁜꿈어린이집",건축물경계로부터 10m까지,서울특별시,강남구,어린이집,서울특별시 강남구 금연환경 조성 및 간접흡연 피해방지 조례 제5조,,100000,02-3423-7115,서울특별시 강남구 개포로110길 15 우성7차아파트 107동 104호,서울특별시 강남구 일원동 615 우성7차아파트 107동 104호,서울특별시 강남구청,37.492545,127.078081,2017-11-17
"윤슬어린이집",건축물경계로부터 10m까지,서울특별시,강남구,어린이집,서울특별시 강남구 금연환경 조성 및 간접흡연 피해방지 조례 제5조,,100000,02-3423-7115,서울특별시 강남구 자곡로 175 LH강남아이파크 705동 102호,서울특별시 강남구 세곡동 602 LH강남아이파크 705동 102호,서울특별시 강남구청,37.474791,127.101137,2017-11-17
"은가비어린이집",건축물경계로부터 10m까지,서울특별시,강남구,어린이집,서울특별시 강남구 금연환경 조성 및 간접흡연 피해방지 조례 제5조,,100000,02-3423-7115,서울특별시 강남구 논현로14길 20 승화빌딩 1층,서울특별시 강남구 개포동 1223-1,서울특별시 강남구청,37.475954,127.048895,2017-11-17
"창의나무아이파크어린이집",건축물경계로부터 10m까지,서울특별시,강남구,어린이집,서울특별시 강남구 금연환경 조성 및 간접흡연 피해방지 조례 제5조,,100000,02-3423-7115,서울특별시 강남구 테헤란로52길 16,서울특별시 강남구 역삼동 709,서울특별시 강남구청,37.503572,127.047836,2017-11-17
"갈매기공원",시설전체,서울특별시,강남구,공원,서울특별시 강남구 금연환경 조성 및 간접흡연 피해방지 조례 제5조,7732,100000,02-3423-7115,서울특별시 강남구 압구정동 480,서울특별시 강남구 압구정동 480,서울특별시 강남구청,37.530925,127.017033,2017-11-17
"신사공원",시설전체,서울특별시,강남구,공원,서울특별시 강남구 금연환경 조성 및 간접흡연 피해방지 조례 제5조,6800,100000,02-3423-7115,서울특별시 강남구 압구정동 422,서울특별시 강남구 압구정동 422,서울특별시 강남구청,37.526706,127.003948,2017-11-17
"삼성은행나무공원",시설전체,서울특별시,강남구,공원,서울특별시 강남구 금연환경 조성 및 간접흡연 피해방지 조례 제5조,1500,100000,02-3423-7115,서울특별시 강남구 삼성동 14외 1필지,서울특별시 강남구 삼성동 14외 1필지,서울특별시 강남구청,37.516471,127.028240,2017-11-17
"길섶공원",시설전체,서울특별시,강남구,공원,서울특별시 강남구 금연환경 조성 및 간접흡연 피해방지 조례 제5조,1581,100000,02-3423-7115,서울특별시 강남구 도곡로51길 33,서울특별시 강남구 역삼동 757-1,서울특별시 강남구청,37.497548,127.031387,2017-11-17
"영동공원",시설전체,서울특별시,강남구,공원,서울특별시 강남구 금연환경 조성 및 간접흡연 피해방지 조례 제5조,1294,100000,02-3423-7115,서울특별시 강남구 선릉로69길 20,서울특별시 강남구 역삼동 755-7,서울특별시 강남구청,37.498023,127.031128,2017-11-17
"보은공원",시설전체,서울특별시,강남구,공원,서울특별시 강남구 금연환경 조성 및 간접흡연 피해방지 조례 제5조,1148,100000,02-3423-7115,서울특별시 강남구 언주로 332,서울특별시 강남구 역삼동 754-4,서울특별시 강남구청,37.497900,127.030721,2017-11-17
"매봉공원",시설전체,서울특별시,강남구,공원,서울특별시 강남구 금연환경 조성 및 간접흡연 피해방지 조례 제5조,6147,100000,02-3423-7115,서울특별시 강남구 선릉로 221,서울특별시 강남구 도곡동 527-7,서울특별시 강남구청,37.492085,127.032759,2017-11-17
"언주공원",시설전체,서울특별시,강남구,공원,서울특별시 강남구 금연환경 조성 및 간접흡연 피해방지 조례 제5조,1111,100000,02-3423-7115,서울특별시 강남구 역삼로 306,서울특별시 강남구 역삼동 754-7외 1필지,서울특별시 강남구청,37.498658,127.030157,2017-11-17
"도성공원",시설전체,서울특별시,강남구,공원,서울특별시 강남구 금연환경 조성 및 간접흡연 피해방지 조례 제5조,1989,100000,02-3423-7115,서울특별시 강남구 역삼로 307,서울특별시 강남구 역삼동 713-15외 1필지,서울특별시 강남구청,37.500261,127.031310,2017-11-17
"송운공원",시설전체,서울특별시,강남구,공원,서울특별시 강남구 금연환경 조성 및 간접흡연 피해방지 조례 제5조,1175,100000,02-3423-7115,서울특별시 강남구 역삼로 314,서울특별시 강남구 역삼동 755-9,서울특별시 강남구청,37.499277,127.031526,2017-11-17
"반달공원",시설전체,서울특별시,강남구,공원,서울특별시 강남구 금연환경 조성 및 간접흡연 피해방지 조례 제5조,679,100000,02-3423-7115,서울특별시 강남구 선릉로130길 20,서울특별시 강남구 삼성동 7-4,서울특별시 강남구청,37.516184,127.025349,2017-11-17
"배꽃공원",시설전체,서울특별시,강남구,공원,서울특별시 강남구 금연환경 조성 및 간접흡연 피해방지 조례 제5조,1593,100000,02-3423-7115,서울특별시 강남구 선릉로126길 22,서울특별시 강남구 삼성동 11-3,서울특별시 강남구청,37.516245,127.027081,2017-11-17
"큰골공원",시설전체,서울특별시,강남구,공원,서울특별시 강남구 금연환경 조성 및 간접흡연 피해방지 조례 제5조,1688,100000,02-3423-7115,서울특별시 강남구 선릉로 222,서울특별시 강남구 대치동 888-3,서울특별시 강남구청,37.493810,127.037216,2017-11-17
"새뜰공원",시설전체,서울특별시,강남구,공원,서울특별시 강남구 금연환경 조성 및 간접흡연 피해방지 조례 제5조,428,100000,02-3423-7115,서울특별시 강남구 도곡로57길 12,서울특별시 강남구 역삼동 765-30,서울특별시 강남구청,37.496560,127.033496,2017-11-17
"샘터공원",시설전체,서울특별시,강남구,공원,서울특별시 강남구 금연환경 조성 및 간접흡연 피해방지 조례 제5조,1800,100000,02-3423-7115,서울특별시 강남구 학동로68길 29,서울특별시 강남구 삼성동 16-4,서울특별시 강남구청,37.496560,127.033496,2017-11-17
"학봉공원",시설전체,서울특별시,강남구,공원,서울특별시 강남구 금연환경 조성 및 간접흡연 피해방지 조례 제5조,1343,100000,02-3423-7115,서울특별시 강남구 삼성로111길 8,서울특별시 강남구 삼성동 50-3,서울특별시 강남구청,37.496560,127.033496,2017-11-17
"다솜공원",시설전체,서울특별시,강남구,공원,서울특별시 강남구 금연환경 조성 및 간접흡연 피해방지 조례 제5조,604,100000,02-3423-7115,서울특별시 강남구 도곡로43길 20,서울특별시 강남구 역삼동 763-18,서울특별시 강남구청,37.501210,127.021168,2017-11-17
"어린이공원2(어린이공원)",시설전체,서울특별시,강남구,공원,서울특별시 강남구 금연환경 조성 및 간접흡연 피해방지 조례 제5조,,100000,02-3423-7115,서울특별시 강남구 세곡동 526-2,서울특별시 강남구 세곡동 526-2,서울특별시 강남구청,37.482443,127.040709,2017-11-17
"출발마당(근린공원)",시설전체,서울특별시,강남구,공원,서울특별시 강남구 금연환경 조성 및 간접흡연 피해방지 조례 제5조,,100000,02-3423-7115,서울특별시 강남구 개포동 1267-1,서울특별시 강남구 개포동 1267-1,서울특별시 강남구청,37.460065,127.092832,2017-11-17
"아기우성 어린이집",건축물경계로부터 10m까지,서울특별시,강남구,어린이집,서울특별시 강남구 금연환경 조성 및 간접흡연 피해방지 조례 제5조,,100000,02-3423-7115,"서울특별시 강남구 강남구 개포로110길 15 101동 104호(일원동, 일원동우성7차아파트)","서울특별시 강남구 강남구 개포로110길 15 101동 104호(일원동, 일원동우성7차아파트)",서울특별시 강남구청,37.481085,127.090874,2017-11-17
"아이맘어린이집",건축물경계로부터 10m까지,서울특별시,강남구,어린이집,서울특별시 강남구 금연환경 조성 및 간접흡연 피해방지 조례 제5조,,100000,02-3423-7115,서울특별시 강남구 강남구 광평로34길 55 강남데시앙포레아파트 114동 103호,서울특별시 강남구 강남구 광평로34길 55 강남데시앙포레아파트 114동 103호,서울특별시 강남구청,37.473136,127.099051,2017-11-17
"아이자람어린이집",건축물경계로부터 10m까지,서울특별시,강남구,어린이집,서울특별시 강남구 금연환경 조성 및 간접흡연 피해방지 조례 제5조,,100000,02-3423-7115,서울특별시 강남구 강남구 자곡로 175 LH강남아이파크 704동 102호,서울특별시 강남구 강남구 자곡로 175 LH강남아이파크 704동 102호,서울특별시 강남구청,37.478349,127.111595,2017-11-17
"에코비어린이집",건축물경계로부터 10m까지,서울특별시,강남구,어린이집,서울특별시 강남구 금연환경 조성 및 간접흡연 피해방지 조례 제5조,,100000,02-3423-7115,서울특별시 강남구 강남구 자곡로 260 강남한양수자인아파트 409동 102호,서울특별시 강남구 강남구 자곡로 260 강남한양수자인아파트 409동 102호,서울특별시 강남구청,37.514098,127.057723,2017-11-17
"우리어린이집",건축물경계로부터 10m까지,서울특별시,강남구,어린이집,서울특별시 강남구 금연환경 조성 및 간접흡연 피해방지 조례 제5조,,100000,02-3423-7115,서울특별시 강남구 강남구 봉은사로114길 13 서울의료원 내,서울특별시 강남구 강남구 봉은사로114길 13 서울의료원 내,서울특별시 강남구청,37.497474,127.056572,2017-11-17
"은마어린이집",건축물경계로부터 10m까지,서울특별시,강남구,어린이집,서울특별시 강남구 금연환경 조성 및 간접흡연 피해방지 조례 제5조,,100000,02-3423-7115,"서울특별시 강남구 강남구 삼성로 212 30동 114호(대치동, 은마아파트)","서울특별시 강남구 강남구 삼성로 212 30동 114호(대치동, 은마아파트)",서울특별시 강남구청,37.497507,127.056572,2017-11-17
"자곡어린이집",건축물경계로부터 10m까지,서울특별시,강남구,어린이집,서울특별시 강남구 금연환경 조성 및 간접흡연 피해방지 조례 제5조,,100000,02-3423-7115,서울특별시 강남구 강남구 자곡로 175 LH 강남아이파크,서울특별시 강남구 강남구 자곡로 175 LH 강남아이파크,서울특별시 강남구청,37.473710,127.042186,2017-11-17
"조이 빅스맘 어린이집",건축물경계로부터 10m까지,서울특별시,강남구,어린이집,서울특별시 강남구 금연환경 조성 및 간접흡연 피해방지 조례 제5조,,100000,02-3423-7115,서울특별시 강남구 강남구 논현로6길 19,서울특별시 강남구 강남구 논현로6길 19,서울특별시 강남구청,37.495822,127.028570,2017-11-17
"조이너스어린이집",건축물경계로부터 10m까지,서울특별시,강남구,어린이집,서울특별시 강남구 금연환경 조성 및 간접흡연 피해방지 조례 제5조,,100000,02-3423-7115,서울특별시 강남구 강남구 역삼로19길 12 조이너스아파트 101호,서울특별시 강남구 강남구 역삼로19길 12 조이너스아파트 101호,서울특별시 강남구청,37.492631,127.081459,2017-11-17
"토리에코비어린이집",건축물경계로부터 10m까지,서울특별시,강남구,어린이집,서울특별시 강남구 금연환경 조성 및 간접흡연 피해방지 조례 제5조,,100000,02-3423-7115,서울특별시 강남구 강남구 양재대로55길 12 120동 101호(수서1단지아파트),서울특별시 강남구 강남구 양재대로55길 12 120동 101호(수서1단지아파트),서울특별시 강남구청,37.483557,127.095225,2017-11-17
"해나무어린이집",건축물경계로부터 10m까지,서울특별시,강남구,어린이집,서울특별시 강남구 금연환경 조성 및 간접흡연 피해방지 조례 제5조,,100000,02-3423-7115,서울특별시 강남구 강남구 자곡로 21 209동 102호,서울특별시 강남구 강남구 자곡로 21 209동 102호,서울특별시 강남구청,37.483591,127.095225,2017-11-17
"압구정주유소",영업허가 면적 경계선까지,서울특별시,강남구,주유소,서울특별시 강남구 금연환경 조성 및 간접흡연 피해방지 조례 제5조,,100000,02-3423-7115,서울특별시 강남구 언주로 842,서울특별시 강남구 신사동 633,서울특별시 강남구청,37.517652,127.027001,2017-11-17
"뉴서울주유소",영업허가 면적 경계선까지,서울특별시,강남구,주유소,서울특별시 강남구 금연환경 조성 및 간접흡연 피해방지 조례 제5조,,100000,02-3423-7115,서울특별시 강남구 언주로 716,"서울특별시 강남구 논현동 106-4,5",서울특별시 강남구청,37.509839,127.032089,2017-11-17
"한티역",한티역 4번출구로부터 10미터 이내,서울특별시,강남구,지하철역,서울특별시 강남구 금연환경 조성 및 간접흡연 피해방지 조례 제5조,,100000,02-3423-7115,서울특별시 강남구 선릉로 228,서울특별시 강남구 대치동 1011-28,서울특별시 강남구청,37.496225,127.052840,2017-11-17
"한티역",한티역 5번출구로부터 10미터 이내,서울특별시,강남구,지하철역,서울특별시 강남구 금연환경 조성 및 간접흡연 피해방지 조례 제5조,,100000,02-3423-7115,서울특별시 강남구 선릉로 228,서울특별시 강남구 대치동 1011-28,서울특별시 강남구청,37.496225,127.052840,2017-11-17
"한티역",한티역 6번출구로부터 10미터 이내,서울특별시,강남구,지하철역,서울특별시 강남구 금연환경 조성 및 간접흡연 피해방지 조례 제5조,,100000,02-3423-7115,서울특별시 강남구 선릉로 228,서울특별시 강남구 대치동 1011-28,서울특별시 강남구청,37.496225,127.052840,2017-11-17
"한티역",한티역 7번출구로부터 10미터 이내,서울특별시,강남구,지하철역,서울특별시 강남구 금연환경 조성 및 간접흡연 피해방지 조례 제5조,,100000,02-3423-7115,서울특별시 강남구 선릉로 228,서울특별시 강남구 대치동 1011-28,서울특별시 강남구청,37.496225,127.052840,2017-11-17
"한티역",한티역 8번출구로부터 10미터 이내,서울특별시,강남구,지하철역,서울특별시 강남구 금연환경 조성 및 간접흡연 피해방지 조례 제5조,,100000,02-3423-7115,서울특별시 강남구 선릉로 228,서울특별시 강남구 대치동 1011-28,서울특별시 강남구청,37.496225,127.052840,2017-11-17
"경복아파트 소공원",시설전체,서울특별시,강남구,공원,서울특별시 강남구 금연환경 조성 및 간접흡연 피해방지 조례 제5조,800,100000,02-3423-7115,서울특별시 강남구 논현동 276-2,서울특별시 강남구 논현동 276-2,서울특별시 강남구청,37.509540,127.038851,2017-11-17
"강남 보금자리 지구 근린공원1호(근린공원)",시설전체,서울특별시,강남구,공원,서울특별시 강남구 금연환경 조성 및 간접흡연 피해방지 조례 제5조,18856.7,100000,02-3423-7115,서울특별시 강남구 세곡동 603번지,서울특별시 강남구 세곡동 603번지,서울특별시 강남구청,37.509540,127.038851,2017-11-17
"강남 보금자리 지구 근린공원2호(근린공원)",시설전체,서울특별시,강남구,공원,서울특별시 강남구 금연환경 조성 및 간접흡연 피해방지 조례 제5조,5236.8,100000,02-3423-7115,서울특별시 강남구 자곡동 625번지,서울특별시 강남구 자곡동 625번지,서울특별시 강남구청,37.509540,127.038851,2017-11-17
"강남 보금자리 지구 근린공원3호(근린공원)",시설전체,서울특별시,강남구,공원,서울특별시 강남구 금연환경 조성 및 간접흡연 피해방지 조례 제5조,38003.6,100000,02-3423-7115,서울특별시 강남구 자곡동 615번지,서울특별시 강남구 자곡동 615번지,서울특별시 강남구청,37.509540,127.038851,2017-11-17
"강남 보금자리 지구 근린공원4호(근린공원)",시설전체,서울특별시,강남구,공원,서울특별시 강남구 금연환경 조성 및 간접흡연 피해방지 조례 제5조,24247.1,100000,02-3423-7115,서울특별시 강남구 자곡동 608번지 외 1,서울특별시 강남구 자곡동 608번지 외 1,서울특별시 강남구청,37.509540,127.038851,2017-11-17
"강남 보금자리 지구 근린공원5호(근린공원)",시설전체,서울특별시,강남구,공원,서울특별시 강남구 금연환경 조성 및 간접흡연 피해방지 조례 제5조,21560.9,100000,02-3423-7115,서울특별시 강남구 자곡동 607번지,서울특별시 강남구 자곡동 607번지,서울특별시 강남구청,37.509540,127.038851,2017-11-17
"강남 보금자리 지구 근린공원6호(근린공원)",시설전체,서울특별시,강남구,공원,서울특별시 강남구 금연환경 조성 및 간접흡연 피해방지 조례 제5조,19739.5,100000,02-3423-7115,서울특별시 강남구 자곡동 647번지,서울특별시 강남구 자곡동 647번지,서울특별시 강남구청,37.472129,127.101924,2017-11-17
"강남 보금자리 지구 근린공원7호(근린공원)",시설전체,서울특별시,강남구,공원,서울특별시 강남구 금연환경 조성 및 간접흡연 피해방지 조례 제5조,12093,100000,02-3423-7115,서울특별시 강남구 자곡동 627번지 외 1,서울특별시 강남구 자곡동 627번지 외 1,서울특별시 강남구청,37.472129,127.101924,2017-11-17
"한섬아이어린이집",건축물경계로부터 10m까지,서울특별시,강남구,어린이집,서울특별시 강남구 금연환경 조성 및 간접흡연 피해방지 조례 제5조,,100000,02-3423-7115,"서울특별시 강남구 언주로 808 2,3층(신사동, 유성빌딩)",서울특별시 강남구 신사동 631-2,서울특별시 강남구청,37.522829,127.033814,2017-11-17
"한신 휴플러스 어린이집",건축물경계로부터 10m까지,서울특별시,강남구,어린이집,서울특별시 강남구 금연환경 조성 및 간접흡연 피해방지 조례 제5조,,100000,02-3423-7115,서울특별시 강남구 밤고개로27길 20 관리동,서울특별시 강남구 밤고개로27길 20 관리동,서울특별시 강남구청,37.470376,127.110164,2017-11-17
"행복누리 어린이집",건축물경계로부터 10m까지,서울특별시,강남구,어린이집,서울특별시 강남구 금연환경 조성 및 간접흡연 피해방지 조례 제5조,,100000,02-3423-7115,서울특별시 강남구 헌릉로590길 63 세곡리엔파크 아파트 501동104호,서울특별시 강남구 헌릉로590길 63 세곡리엔파크 아파트 501동104호,서울특별시 강남구청,37.460304,127.101534,2017-11-17
"힐스어린이집",건축물경계로부터 10m까지,서울특별시,강남구,어린이집,서울특별시 강남구 금연환경 조성 및 간접흡연 피해방지 조례 제5조,,100000,02-3423-7115,서울특별시 강남구 자곡로3길 21 LHA5블럭,서울특별시 강남구 자곡로3길 21 LHA5블럭,서울특별시 강남구청,37.460252,127.101587,2017-11-17
"서울율현초등학교",출입문으로부터 직선거리 50m까지,서울특별시,강남구,학교절대보호구역,서울특별시 강남구 금연환경 조성 및 간접흡연 피해방지 조례 제5조,,100000,02-3423-7115,서울특별시 강남구 밤고개로21길 15(자곡동),서울특별시 강남구 밤고개로21길 15(자곡동),서울특별시 강남구청,37.474217,127.108598,2017-11-17
"서울자곡초등학교",출입문으로부터 직선거리 50m까지,서울특별시,강남구,학교절대보호구역,서울특별시 강남구 금연환경 조성 및 간접흡연 피해방지 조례 제5조,,100000,02-3423-7115,서울특별시 강남구 자곡로 150 (자곡동),서울특별시 강남구 자곡로 150 (자곡동),서울특별시 강남구청,37.472071,127.099529,2017-11-17
"호야 어린이집",건축물경계로부터 10m까지,서울특별시,강남구,어린이집,서울특별시 강남구 금연환경 조성 및 간접흡연 피해방지 조례 제5조,,100000,02-3423-7115,서울특별시 강남구 헌릉로590길 63 세곡리엔파크APT 306-102,서울특별시 강남구 헌릉로590길 63 세곡리엔파크APT 306-102,서울특별시 강남구청,37.462915,127.099280,2017-11-17
"명화어린이집",건축물경계로부터 10m까지,서울특별시,강남구,어린이집,서울특별시 강남구 금연환경 조성 및 간접흡연 피해방지 조례 제5조,,100000,02-3423-7115,서울특별시 강남구 광평로51길 49,서울특별시 강남구 광평로51길 49,서울특별시 강남구청,37.491033,127.082769,2017-11-17
"민들레어린이집",건축물경계로부터 10m까지,서울특별시,강남구,어린이집,서울특별시 강남구 금연환경 조성 및 간접흡연 피해방지 조례 제5조,,100000,02-3423-7115,서울특별시 강남구 광평로56길 11,서울특별시 강남구 광평로56길 11,서울특별시 강남구청,37.487261,127.087660,2017-11-17
"삐아제어린이집",건축물경계로부터 10m까지,서울특별시,강남구,어린이집,서울특별시 강남구 금연환경 조성 및 간접흡연 피해방지 조례 제5조,,100000,02-3423-7115,서울특별시 강남구 광평로47길 17 신동아APT7단지,서울특별시 강남구 광평로47길 17 신동아APT7단지,서울특별시 강남구청,37.487070,127.080838,2017-11-17
"수서서머힐어린이집",건축물경계로부터 10m까지,서울특별시,강남구,어린이집,서울특별시 강남구 금연환경 조성 및 간접흡연 피해방지 조례 제5조,,100000,02-3423-7115,서울특별시 강남구 밤고개로1길 43 한아름APT내(內),서울특별시 강남구 밤고개로1길 43 한아름APT내(內),서울특별시 강남구청,37.489416,127.086137,2017-11-17
"수서어린이집",건축물경계로부터 10m까지,서울특별시,강남구,어린이집,서울특별시 강남구 금연환경 조성 및 간접흡연 피해방지 조례 제5조,,100000,02-3423-7115,서울특별시 강남구 광평로 242,서울특별시 강남구 광평로 242,서울특별시 강남구청,37.486133,127.081545,2017-11-17
"아이꿈 어린이집",건축물경계로부터 10m까지,서울특별시,강남구,어린이집,서울특별시 강남구 금연환경 조성 및 간접흡연 피해방지 조례 제5조,,100000,02-3423-7115,서울특별시 강남구 광평로51길 27 404동 101호,서울특별시 강남구 광평로51길 27 404동 101호,서울특별시 강남구청,37.489066,127.083498,2017-11-17
"예원어린이집",건축물경계로부터 10m까지,서울특별시,강남구,어린이집,서울특별시 강남구 금연환경 조성 및 간접흡연 피해방지 조례 제5조,,100000,02-3423-7115,서울특별시 강남구 논현로151길 32-1,서울특별시 강남구 논현로151길 32-1,서울특별시 강남구청,37.519980,127.007930,2017-11-17
"강남동산어린이집",건축물경계로부터 10m까지,서울특별시,강남구,어린이집,서울특별시 강남구 금연환경 조성 및 간접흡연 피해방지 조례 제5조,,100000,02-3423-7115,서울특별시 강남구 개포로 257,서울특별시 강남구 개포로 257,서울특별시 강남구청,37.479429,127.032773,2017-11-17
"꼬꼬맘 어린이집",건축물경계로부터 10m까지,서울특별시,강남구,어린이집,서울특별시 강남구 금연환경 조성 및 간접흡연 피해방지 조례 제5조,,100000,02-3423-7115,서울특별시 강남구 논현로4길 41,서울특별시 강남구 논현로4길 41,서울특별시 강남구청,37.474043,127.035571,2017-11-17
"다솔어린이집",건축물경계로부터 10m까지,서울특별시,강남구,어린이집,서울특별시 강남구 금연환경 조성 및 간접흡연 피해방지 조례 제5조,,100000,02-3423-7115,서울특별시 강남구 언주로 21,서울특별시 강남구 언주로 21,서울특별시 강남구청,37.478559,127.036753,2017-11-17
"은성어린이집",건축물경계로부터 10m까지,서울특별시,강남구,어린이집,서울특별시 강남구 금연환경 조성 및 간접흡연 피해방지 조례 제5조,,100000,02-3423-7115,서울특별시 강남구 개포로109길 5 216동 111호,서울특별시 강남구 개포로109길 5 216동 111호,서울특별시 강남구청,37.493964,127.057588,2017-11-17
"인성어린이집",건축물경계로부터 10m까지,서울특별시,강남구,어린이집,서울특별시 강남구 금연환경 조성 및 간접흡연 피해방지 조례 제5조,,100000,02-3423-7115,서울특별시 강남구 개포로109길 5 305동 102호,서울특별시 강남구 개포로109길 5 305동 102호,서울특별시 강남구청,37.493964,127.057588,2017-11-17
"현이어린이집",건축물경계로부터 10m까지,서울특별시,강남구,어린이집,서울특별시 강남구 금연환경 조성 및 간접흡연 피해방지 조례 제5조,,100000,02-3423-7115,서울특별시 강남구 개포로110길 15 107동 104호,서울특별시 강남구 개포로110길 15 107동 104호,서울특별시 강남구청,37.492339,127.060614,2017-11-17
"꼬마어린이집",건축물경계로부터 10m까지,서울특별시,강남구,어린이집,서울특별시 강남구 금연환경 조성 및 간접흡연 피해방지 조례 제5조,,100000,02-3423-7115,서울특별시 강남구 도산대로89길 15,서울특별시 강남구 도산대로89길 15,서울특별시 강남구청,37.525710,127.033169,2017-11-17
"담희어린이집",건축물경계로부터 10m까지,서울특별시,강남구,어린이집,서울특별시 강남구 금연환경 조성 및 간접흡연 피해방지 조례 제5조,,100000,02-3423-7115,서울특별시 강남구 영동대로138길 12,서울특별시 강남구 영동대로138길 12,서울특별시 강남구청,37.523546,127.039898,2017-11-17
"언북어린이집",건축물경계로부터 10m까지,서울특별시,강남구,어린이집,서울특별시 강남구 금연환경 조성 및 간접흡연 피해방지 조례 제5조,,100000,02-3423-7115,서울특별시 강남구 삼성로135길 42,서울특별시 강남구 삼성로135길 42,서울특별시 강남구청,37.519924,127.027590,2017-11-17
"언북몬테소리어린이집",건축물경계로부터 10m까지,서울특별시,강남구,어린이집,서울특별시 강남구 금연환경 조성 및 간접흡연 피해방지 조례 제5조,,100000,02-3423-7115,서울특별시 강남구 학동로67길 15,서울특별시 강남구 학동로67길 15,서울특별시 강남구청,37.519320,127.029034,2017-11-17
"준현어린이집",건축물경계로부터 10m까지,서울특별시,강남구,어린이집,서울특별시 강남구 금연환경 조성 및 간접흡연 피해방지 조례 제5조,,100000,02-3423-7115,서울특별시 강남구 선릉로148길 48-6,서울특별시 강남구 선릉로148길 48-6,서울특별시 강남구청,37.522586,127.025849,2017-11-17
"청담샛별",건축물경계로부터 10m까지,서울특별시,강남구,어린이집,서울특별시 강남구 금연환경 조성 및 간접흡연 피해방지 조례 제5조,,100000,02-3423-7115,서울특별시 강남구 압구정로79길 26 4층,서울특별시 강남구 압구정로79길 26 4층,서울특별시 강남구청,37.525050,127.031774,2017-11-17
"청담아이나라어린이집",건축물경계로부터 10m까지,서울특별시,강남구,어린이집,서울특별시 강남구 금연환경 조성 및 간접흡연 피해방지 조례 제5조,,100000,02-3423-7115,서울특별시 강남구 삼성로147길 24 1층,서울특별시 강남구 삼성로147길 24 1층,서울특별시 강남구청,37.521464,127.029433,2017-11-17
"청담어린이집",건축물경계로부터 10m까지,서울특별시,강남구,어린이집,서울특별시 강남구 금연환경 조성 및 간접흡연 피해방지 조례 제5조,,100000,02-3423-7115,서울특별시 강남구 도산대로56길 14,서울특별시 강남구 도산대로56길 14,서울특별시 강남구청,37.522078,127.022589,2017-11-17
"청수어린이집",건축물경계로부터 10m까지,서울특별시,강남구,어린이집,서울특별시 강남구 금연환경 조성 및 간접흡연 피해방지 조례 제5조,,100000,02-3423-7115,서울특별시 강남구 압구정로79길 26,서울특별시 강남구 압구정로79길 26,서울특별시 강남구청,37.525050,127.031774,2017-11-17
"힐즈어린이집",건축물경계로부터 10m까지,서울특별시,강남구,어린이집,서울특별시 강남구 금연환경 조성 및 간접흡연 피해방지 조례 제5조,,100000,02-3423-7115,서울특별시 강남구 강남구 자곡로 101 래미안강남힐즈어린이집,서울특별시 강남구 강남구 자곡로 101 래미안강남힐즈어린이집,서울특별시 강남구청,37.473596,127.093163,2017-11-17
"경기유치원",건축물경계로부터 10m까지,서울특별시,강남구,유치원,서울특별시 강남구 금연환경 조성 및 간접흡연 피해방지 조례 제5조,,100000,02-3423-7115,서울특별시 강남구 삼성로 14,서울특별시 강남구 개포동 189-4,서울특별시 강남구청,37.485585,127.054566,2017-11-17
"돌샘유치원",건축물경계로부터 10m까지,서울특별시,강남구,유치원,서울특별시 강남구 금연환경 조성 및 간접흡연 피해방지 조례 제5조,,100000,02-3423-7115,서울특별시 강남구 개포로 516,서울특별시 강남구 개포동 185-1,서울특별시 강남구청,37.488326,127.054019,2017-11-17
"개포초등학교병설유치원",건축물경계로부터 10m까지,서울특별시,강남구,유치원,서울특별시 강남구 금연환경 조성 및 간접흡연 피해방지 조례 제5조,,100000,02-3423-7115,서울특별시 강남구 영동대로 3길 45,서울특별시 강남구 개포동 188,서울특별시 강남구청,37.486626,127.053478,2017-11-17
"신양유치원",건축물경계로부터 10m까지,서울특별시,강남구,유치원,서울특별시 강남구 금연환경 조성 및 간접흡연 피해방지 조례 제5조,,100000,02-3423-7115,서울특별시 강남구 선릉로10길 18-6,서울특별시 강남구 개포2동 164-2,서울특별시 강남구청,37.483429,127.044169,2017-11-17
"원일유치원",건축물경계로부터 10m까지,서울특별시,강남구,유치원,서울특별시 강남구 금연환경 조성 및 간접흡연 피해방지 조례 제5조,,100000,02-3423-7115,서울특별시 강남구 선릉로 8,서울특별시 강남구 개포동 140-1,서울특별시 강남구청,37.481290,127.047485,2017-11-17
"선정릉역",선정릉역 3번출구로부터 10미터 이내,서울특별시,강남구,지하철역,서울특별시 강남구 금연환경 조성 및 간접흡연 피해방지 조례 제5조,,100000,02-3423-7115,서울특별시 강남구 선릉로 580,서울특별시 강남구 삼성동 111-114,서울특별시 강남구청,37.510266,127.043806,2017-11-17
"선정릉역",선정릉역 4번출구로부터 10미터 이내,서울특별시,강남구,지하철역,서울특별시 강남구 금연환경 조성 및 간접흡연 피해방지 조례 제5조,,100000,02-3423-7115,서울특별시 강남구 선릉로 580,서울특별시 강남구 삼성동 111-114,서울특별시 강남구청,37.510266,127.043806,2017-11-17
"수서역",수서역 1번출구로부터 10미터 이내,서울특별시,강남구,지하철역,서울특별시 강남구 금연환경 조성 및 간접흡연 피해방지 조례 제5조,,100000,02-3423-7115,서울특별시 강남구 광평로 270,서울특별시 강남구 수서동 728,서울특별시 강남구청,37.487468,127.101282,2017-11-17
"수서역",수서역 2번출구로부터 10미터 이내,서울특별시,강남구,지하철역,서울특별시 강남구 금연환경 조성 및 간접흡연 피해방지 조례 제5조,,100000,02-3423-7115,서울특별시 강남구 광평로 270,서울특별시 강남구 수서동 728,서울특별시 강남구청,37.487468,127.101282,2017-11-17
"수서역",수서역 3번출구로부터 10미터 이내,서울특별시,강남구,지하철역,서울특별시 강남구 금연환경 조성 및 간접흡연 피해방지 조례 제5조,,100000,02-3423-7115,서울특별시 강남구 광평로 270,서울특별시 강남구 수서동 728,서울특별시 강남구청,37.487468,127.101282,2017-11-17
"수서역",수서역 4번출구로부터 10미터 이내,서울특별시,강남구,지하철역,서울특별시 강남구 금연환경 조성 및 간접흡연 피해방지 조례 제5조,,100000,02-3423-7115,서울특별시 강남구 광평로 270,서울특별시 강남구 수서동 728,서울특별시 강남구청,37.487468,127.101282,2017-11-17
"수서역",수서역 5번출구로부터 10미터 이내,서울특별시,강남구,지하철역,서울특별시 강남구 금연환경 조성 및 간접흡연 피해방지 조례 제5조,,100000,02-3423-7115,서울특별시 강남구 광평로 270,서울특별시 강남구 수서동 728,서울특별시 강남구청,37.487468,127.101282,2017-11-17
"수서역",수서역 6번출구로부터 10미터 이내,서울특별시,강남구,지하철역,서울특별시 강남구 금연환경 조성 및 간접흡연 피해방지 조례 제5조,,100000,02-3423-7115,서울특별시 강남구 광평로 270,서울특별시 강남구 수서동 728,서울특별시 강남구청,37.487468,127.101282,2017-11-17
"수서역",수서역 7번출구로부터 10미터 이내,서울특별시,강남구,지하철역,서울특별시 강남구 금연환경 조성 및 간접흡연 피해방지 조례 제5조,,100000,02-3423-7115,서울특별시 강남구 광평로 270,서울특별시 강남구 수서동 728,서울특별시 강남구청,37.487468,127.101282,2017-11-17
"강남 보금자리 지구 수변공원1호(주제공원)",시설전체,서울특별시,강남구,공원,서울특별시 강남구 금연환경 조성 및 간접흡연 피해방지 조례 제5조,10399.2,100000,02-3423-7115,서울특별시 강남구 세곡동 604번지 외 1,서울특별시 강남구 세곡동 604번지 외 1,서울특별시 강남구청,37.472129,127.101924,2017-11-17
"강남 보금자리 지구 수변공원2호(주제공원)",시설전체,서울특별시,강남구,공원,서울특별시 강남구 금연환경 조성 및 간접흡연 피해방지 조례 제5조,3713.3,100000,02-3423-7115,서울특별시 강남구 ]세곡동 537번지,서울특별시 강남구 ]세곡동 537번지,서울특별시 강남구청,37.472129,127.101924,2017-11-17
"강남 보금자리 지구(소공원)",시설전체,서울특별시,강남구,공원,서울특별시 강남구 금연환경 조성 및 간접흡연 피해방지 조례 제5조,1199.2,100000,02-3423-7115,서울특별시 강남구 세곡동 549번지,서울특별시 강남구 세곡동 549번지,서울특별시 강남구청,37.472129,127.101924,2017-11-17
"세곡2 근린공원 1(근린공원)",시설전체,서울특별시,강남구,공원,서울특별시 강남구 금연환경 조성 및 간접흡연 피해방지 조례 제5조,13954,100000,02-3423-7115,서울특별시 강남구 수서동 525답 일원,서울특별시 강남구 수서동 525답 일원,서울특별시 강남구청,37.472129,127.101924,2017-11-17
"세곡2 근린공원 2(근린공원)",시설전체,서울특별시,강남구,공원,서울특별시 강남구 금연환경 조성 및 간접흡연 피해방지 조례 제5조,12026,100000,02-3423-7115,서울특별시 강남구 수서동 569답 일원,서울특별시 강남구 수서동 569답 일원,서울특별시 강남구청,37.472129,127.101924,2017-11-17
"세곡2 소공원1(소공원)",시설전체,서울특별시,강남구,공원,서울특별시 강남구 금연환경 조성 및 간접흡연 피해방지 조례 제5조,5704,100000,02-3423-7115,서울특별시 강남구 율현동 254-3답 일원,서울특별시 강남구 율현동 254-3답 일원,서울특별시 강남구청,37.472129,127.101924,2017-11-17
"세곡2 소공원 2(소공원)",시설전체,서울특별시,강남구,공원,서울특별시 강남구 금연환경 조성 및 간접흡연 피해방지 조례 제5조,692,100000,02-3423-7115,서울특별시 강남구 율현동 192-4구 일원,서울특별시 강남구 율현동 192-4구 일원,서울특별시 강남구청,37.472129,127.101924,2017-11-17
"세곡2 역사공원 1(주제공원)",시설전체,서울특별시,강남구,공원,서울특별시 강남구 금연환경 조성 및 간접흡연 피해방지 조례 제5조,20504,100000,02-3423-7115,서울특별시 강남구 수서동 532답 일원,서울특별시 강남구 수서동 532답 일원,서울특별시 강남구청,37.472129,127.101924,2017-11-17
"엔씨소프트어린이집",건축물경계로부터 10m까지,서울특별시,강남구,어린이집,서울특별시 강남구 금연환경 조성 및 간접흡연 피해방지 조례 제5조,,100000,02-3423-7115,서울특별시 강남구 테헤란로 509 NC soft R&D센터,서울특별시 강남구 테헤란로 509 NC soft R&D센터,서울특별시 강남구청,37.507740,127.040682,2017-11-17
"초망몬테소리어린이집",건축물경계로부터 10m까지,서울특별시,강남구,어린이집,서울특별시 강남구 금연환경 조성 및 간접흡연 피해방지 조례 제5조,,100000,02-3423-7115,서울특별시 강남구 봉은사로105길 24,서울특별시 강남구 봉은사로105길 24,서울특별시 강남구청,37.516222,127.044356,2017-11-17
"한별어린이집",건축물경계로부터 10m까지,서울특별시,강남구,어린이집,서울특별시 강남구 금연환경 조성 및 간접흡연 피해방지 조례 제5조,,100000,02-3423-7115,서울특별시 강남구 봉은사로82길 23,서울특별시 강남구 봉은사로82길 23,서울특별시 강남구청,37.511758,127.037988,2017-11-17
"한전 빛사랑 어린이집",건축물경계로부터 10m까지,서울특별시,강남구,어린이집,서울특별시 강남구 금연환경 조성 및 간접흡연 피해방지 조례 제5조,,100000,02-3423-7115,서울특별시 강남구 영동대로 512 별관 1층,서울특별시 강남구 영동대로 512 별관 1층,서울특별시 강남구청,37.512285,127.045533,2017-11-17
"강남구청 직장어린이집",건축물경계로부터 10m까지,서울특별시,강남구,어린이집,서울특별시 강남구 금연환경 조성 및 간접흡연 피해방지 조례 제5조,,100000,02-3423-7115,서울특별시 강남구 학동로 426,서울특별시 강남구 학동로 426,서울특별시 강남구청,37.517715,127.047459,2017-11-17
"포그니어린이집",건축물경계로부터 10m까지,서울특별시,강남구,어린이집,서울특별시 강남구 금연환경 조성 및 간접흡연 피해방지 조례 제5조,,100000,02-3423-7115,서울특별시 강남구 학동로64길 7 102동107호,서울특별시 강남구 학동로64길 7 102동107호,서울특별시 강남구청,37.517368,127.028039,2017-11-17
"도토리소풍넥슨어린이집",건축물경계로부터 10m까지,서울특별시,강남구,어린이집,서울특별시 강남구 금연환경 조성 및 간접흡연 피해방지 조례 제5조,,100000,02-3423-7115,서울특별시 강남구 은사로68길27,서울특별시 강남구 은사로68길27,서울특별시 강남구청,37.517368,127.028039,2017-11-17
"방주어린이집",건축물경계로부터 10m까지,서울특별시,강남구,어린이집,서울특별시 강남구 금연환경 조성 및 간접흡연 피해방지 조례 제5조,,100000,02-3423-7115,서울특별시 강남구 신사동 567-17 1층,서울특별시 강남구 신사동 567-17 1층,서울특별시 강남구청,37.523400,127.009327,2017-11-17
"신사어린이집",건축물경계로부터 10m까지,서울특별시,강남구,어린이집,서울특별시 강남구 금연환경 조성 및 간접흡연 피해방지 조례 제5조,,100000,02-3423-7115,서울특별시 강남구 도산대로15길 26,서울특별시 강남구 도산대로15길 26,서울특별시 강남구청,37.519962,127.006550,2017-11-17
"압구정아람어린이집",건축물경계로부터 10m까지,서울특별시,강남구,어린이집,서울특별시 강남구 금연환경 조성 및 간접흡연 피해방지 조례 제5조,,100000,02-3423-7115,서울특별시 강남구 압구정로 311,서울특별시 강남구 압구정로 311,서울특별시 강남구청,37.529309,127.018088,2017-11-17
"바롬어린이집",건축물경계로부터 10m까지,서울특별시,강남구,어린이집,서울특별시 강남구 금연환경 조성 및 간접흡연 피해방지 조례 제5조,,100000,02-3423-7115,서울특별시 강남구 언주로164길 36,서울특별시 강남구 언주로164길 36,서울특별시 강남구청,37.525303,127.018842,2017-11-17
"압구정어린이집",건축물경계로부터 10m까지,서울특별시,강남구,어린이집,서울특별시 강남구 금연환경 조성 및 간접흡연 피해방지 조례 제5조,,100000,02-3423-7115,서울특별시 강남구 언주로157길 8,서울특별시 강남구 언주로157길 8,서울특별시 강남구청,37.523921,127.014742,2017-11-17
"압구정코코어린이집",건축물경계로부터 10m까지,서울특별시,강남구,어린이집,서울특별시 강남구 금연환경 조성 및 간접흡연 피해방지 조례 제5조,,100000,02-3423-7115,서울특별시 강남구 논현로158길 19,서울특별시 강남구 논현로158길 19,서울특별시 강남구청,37.522176,127.012427,2017-11-17
"압구정키즈어린이집",건축물경계로부터 10m까지,서울특별시,강남구,어린이집,서울특별시 강남구 금연환경 조성 및 간접흡연 피해방지 조례 제5조,,100000,02-3423-7115,서울특별시 강남구 압구정로42길 25-5,서울특별시 강남구 압구정로42길 25-5,서울특별시 강남구청,37.527231,127.018047,2017-11-17
"미래나무어린이집",건축물경계로부터 10m까지,서울특별시,강남구,어린이집,서울특별시 강남구 금연환경 조성 및 간접흡연 피해방지 조례 제5조,,100000,02-3423-7115,서울특별시 강남구 논현로99길 21,서울특별시 강남구 논현로99길 21,서울특별시 강남구청,37.503166,127.016170,2017-11-17
"조이너스어린이집",건축물경계로부터 10m까지,서울특별시,강남구,어린이집,서울특별시 강남구 금연환경 조성 및 간접흡연 피해방지 조례 제5조,,100000,02-3423-7115,서울특별시 강남구 역삼로19길12 조이너스APT101호,서울특별시 강남구 역삼로19길12 조이너스APT101호,서울특별시 강남구청,37.495804,127.019815,2017-11-17
"지예슬어린이집",건축물경계로부터 10m까지,서울특별시,강남구,어린이집,서울특별시 강남구 금연환경 조성 및 간접흡연 피해방지 조례 제5조,,100000,02-3423-7115,서울특별시 강남구 테헤란로25길 43,서울특별시 강남구 테헤란로25길 43,서울특별시 강남구청,37.503324,127.017091,2017-11-17
"서울논현초등학교",출입문으로부터 직선거리 50m까지,서울특별시,강남구,학교절대보호구역,서울특별시 강남구 금연환경 조성 및 간접흡연 피해방지 조례 제5조,,100000,02-3423-7115,서울특별시 강남구 강남대로120길 33,서울특별시 강남구 논현동 168번지,서울특별시 강남구청,37.494348,127.055938,2017-11-17
"서울대곡초등학교",출입문으로부터 직선거리 50m까지,서울특별시,강남구,학교절대보호구역,서울특별시 강남구 금연환경 조성 및 간접흡연 피해방지 조례 제5조,,100000,02-3423-7115,서울특별시 강남구 남부순환로 3022,서울특별시 강남구 대치 2동 510번지,서울특별시 강남구청,37.492645,127.044875,2017-11-17
"서울대도초등학교",출입문으로부터 직선거리 50m까지,서울특별시,강남구,학교절대보호구역,서울특별시 강남구 금연환경 조성 및 간접흡연 피해방지 조례 제5조,,100000,02-3423-7115,서울특별시 강남구 도곡 2동 109번지,서울특별시 강남구 도곡 2동 109번지,서울특별시 강남구청,37.481450,127.077765,2017-11-17
"서울대모초등학교",출입문으로부터 직선거리 50m까지,서울특별시,강남구,학교절대보호구역,서울특별시 강남구 금연환경 조성 및 간접흡연 피해방지 조례 제5조,,100000,02-3423-7115,서울특별시 강남구 광평로20길 27,서울특별시 강남구 일원본동 736번지,서울특별시 강남구청,37.464216,127.096877,2017-11-17
"서울대왕초등학교",출입문으로부터 직선거리 50m까지,서울특별시,강남구,학교절대보호구역,서울특별시 강남구 금연환경 조성 및 간접흡연 피해방지 조례 제5조,,100000,02-3423-7115,서울특별시 강남구 세곡동 122-2번지,서울특별시 강남구 세곡동 122-2번지,서울특별시 강남구청,37.497043,127.069222,2017-11-17
"튼튼영재어린이집",건축물경계로부터 10m까지,서울특별시,강남구,어린이집,서울특별시 강남구 금연환경 조성 및 간접흡연 피해방지 조례 제5조,,100000,02-3423-7115,서울특별시 강남구 학동로101길26 삼익상가 3층,서울특별시 강남구 학동로101길26 삼익상가 3층,서울특별시 강남구청,37.522406,127.040098,2017-11-17
"가로수어린이집",건축물경계로부터 10m까지,서울특별시,강남구,어린이집,서울특별시 강남구 금연환경 조성 및 간접흡연 피해방지 조례 제5조,,100000,02-3423-7115,서울특별시 강남구 압구정로18길 28,서울특별시 강남구 압구정로18길 28 신구초등학교내,서울특별시 강남구청,37.464216,127.096877,2017-11-17
"가온어린이집",건축물경계로부터 10m까지,서울특별시,강남구,어린이집,서울특별시 강남구 금연환경 조성 및 간접흡연 피해방지 조례 제5조,,100000,02-3423-7115,서울특별시 강남구 헌릉로618길 8,서울특별시 강남구 헌릉로 618길 8 대왕초등학교내,서울특별시 강남구청,37.499337,127.046173,2017-11-17
"개포동역",개포동역 8번출구로부터 10미터 이내,서울특별시,강남구,지하철역,서울특별시 강남구 금연환경 조성 및 간접흡연 피해방지 조례 제5조,,100000,02-3423-7115,서울특별시 강남구 개포로 420,서울특별시 강남구 개포동 195,서울특별시 강남구청,37.489354,127.066502,2017-11-17
"구룡역",구룡역 1번출구로부터 10미터 이내,서울특별시,강남구,지하철역,서울특별시 강남구 금연환경 조성 및 간접흡연 피해방지 조례 제5조,,100000,02-3423-7115,서울특별시 강남구 개포로 403,서울특별시 강남구 개포동 175-3,서울특별시 강남구청,37.486942,127.059453,2017-11-17
"구룡역",구룡역 2번출구로부터 10미터 이내,서울특별시,강남구,지하철역,서울특별시 강남구 금연환경 조성 및 간접흡연 피해방지 조례 제5조,,100000,02-3423-7115,서울특별시 강남구 개포로 403,서울특별시 강남구 개포동 175-3,서울특별시 강남구청,37.486942,127.059453,2017-11-17
"구룡역",구룡역 3번출구로부터 10미터 이내,서울특별시,강남구,지하철역,서울특별시 강남구 금연환경 조성 및 간접흡연 피해방지 조례 제5조,,100000,02-3423-7115,서울특별시 강남구 개포로 403,서울특별시 강남구 개포동 175-3,서울특별시 강남구청,37.486942,127.059453,2017-11-17
"구룡역",구룡역 4번출구로부터 10미터 이내,서울특별시,강남구,지하철역,서울특별시 강남구 금연환경 조성 및 간접흡연 피해방지 조례 제5조,,100000,02-3423-7115,서울특별시 강남구 개포로 403,서울특별시 강남구 개포동 175-3,서울특별시 강남구청,37.486942,127.059453,2017-11-17
"구룡역",구룡역 5번출구로부터 10미터 이내,서울특별시,강남구,지하철역,서울특별시 강남구 금연환경 조성 및 간접흡연 피해방지 조례 제5조,,100000,02-3423-7115,서울특별시 강남구 개포로 403,서울특별시 강남구 개포동 175-3,서울특별시 강남구청,37.486942,127.059453,2017-11-17
"논현역",논현역 1번출구로부터 10미터 이내,서울특별시,강남구,지하철역,서울특별시 강남구 금연환경 조성 및 간접흡연 피해방지 조례 제5조,,100000,02-3423-7115,서울특별시 강남구 학동로 102,서울특별시 강남구 논현동 280,서울특별시 강남구청,37.511263,127.021671,2017-11-17
"논현역",논현역 2번출구로부터 10미터 이내,서울특별시,강남구,지하철역,서울특별시 강남구 금연환경 조성 및 간접흡연 피해방지 조례 제5조,,100000,02-3423-7115,서울특별시 강남구 학동로 102,서울특별시 강남구 논현동 280,서울특별시 강남구청,37.511263,127.021671,2017-11-17
"논현역",논현역 7번출구로부터 10미터 이내,서울특별시,강남구,지하철역,서울특별시 강남구 금연환경 조성 및 간접흡연 피해방지 조례 제5조,,100000,02-3423-7115,서울특별시 강남구 학동로 102,서울특별시 강남구 논현동 280,서울특별시 강남구청,37.511263,127.021671,2017-11-17
"논현역",논현역 8번출구로부터 10미터 이내,서울특별시,강남구,지하철역,서울특별시 강남구 금연환경 조성 및 간접흡연 피해방지 조례 제5조,,100000,02-3423-7115,서울특별시 강남구 학동로 102,서울특별시 강남구 논현동 280,서울특별시 강남구청,37.511263,127.021671,2017-11-17
"대모산입구역",대모산입구역 1번출구로부터 10미터 이내,서울특별시,강남구,지하철역,서울특별시 강남구 금연환경 조성 및 간접흡연 피해방지 조례 제5조,,100000,02-3423-7115,서울특별시 강남구 개포로 522,서울특별시 강남구 일원동 700,서울특별시 강남구청,37.491330,127.072659,2017-11-17
"대모산입구역",대모산입구역 2번출구로부터 10미터 이내,서울특별시,강남구,지하철역,서울특별시 강남구 금연환경 조성 및 간접흡연 피해방지 조례 제5조,,100000,02-3423-7115,서울특별시 강남구 개포로 522,서울특별시 강남구 일원동 700,서울특별시 강남구청,37.491330,127.072659,2017-11-17
"신논현역",신논현역 3번출구로부터 10미터 이내,서울특별시,강남구,지하철역,서울특별시 강남구 금연환경 조성 및 간접흡연 피해방지 조례 제5조,,100000,02-3423-7115,서울특별시 강남구 봉은사로 102,서울특별시 강남구 역삼동 800,서울특별시 강남구청,37.504441,127.024539,2017-11-17
"신논현역",신논현역 4번출구로부터 10미터 이내,서울특별시,강남구,지하철역,서울특별시 강남구 금연환경 조성 및 간접흡연 피해방지 조례 제5조,,100000,02-3423-7115,서울특별시 강남구 봉은사로 102,서울특별시 강남구 역삼동 800,서울특별시 강남구청,37.504441,127.024539,2017-11-17
"신논현역",신논현역 5번출구로부터 10미터 이내,서울특별시,강남구,지하철역,서울특별시 강남구 금연환경 조성 및 간접흡연 피해방지 조례 제5조,,100000,02-3423-7115,서울특별시 강남구 봉은사로 102,서울특별시 강남구 역삼동 800,서울특별시 강남구청,37.504441,127.024539,2017-11-17
"신사역",신사역 1번출구로부터 10미터 이내,서울특별시,강남구,지하철역,서울특별시 강남구 금연환경 조성 및 간접흡연 피해방지 조례 제5조,,100000,02-3423-7115,서울특별시 강남구 도산대로 102,서울특별시 강남구 신사동 667,서울특별시 강남구청,37.516406,127.020230,2017-11-17
"신사역",신사역 2번출구로부터 10미터 이내,서울특별시,강남구,지하철역,서울특별시 강남구 금연환경 조성 및 간접흡연 피해방지 조례 제5조,,100000,02-3423-7115,서울특별시 강남구 도산대로 102,서울특별시 강남구 신사동 667,서울특별시 강남구청,37.516406,127.020230,2017-11-17
"신사역",신사역 3번출구로부터 10미터 이내,서울특별시,강남구,지하철역,서울특별시 강남구 금연환경 조성 및 간접흡연 피해방지 조례 제5조,,100000,02-3423-7115,서울특별시 강남구 도산대로 102,서울특별시 강남구 신사동 667,서울특별시 강남구청,37.516406,127.020230,2017-11-17
"신사역",신사역 4번출구로부터 10미터 이내,서울특별시,강남구,지하철역,서울특별시 강남구 금연환경 조성 및 간접흡연 피해방지 조례 제5조,,100000,02-3423-7115,서울특별시 강남구 도산대로 102,서울특별시 강남구 신사동 667,서울특별시 강남구청,37.516406,127.020230,2017-11-17
"신사역",신사역 5번출구로부터 10미터 이내,서울특별시,강남구,지하철역,서울특별시 강남구 금연환경 조성 및 간접흡연 피해방지 조례 제5조,,100000,02-3423-7115,서울특별시 강남구 도산대로 102,서울특별시 강남구 신사동 667,서울특별시 강남구청,37.516406,127.020230,2017-11-17
"신사역",신사역 6번출구로부터 10미터 이내,서울특별시,강남구,지하철역,서울특별시 강남구 금연환경 조성 및 간접흡연 피해방지 조례 제5조,,100000,02-3423-7115,서울특별시 강남구 도산대로 102,서울특별시 강남구 신사동 667,서울특별시 강남구청,37.516406,127.020230,2017-11-17
"압구정역",압구정역 1번출구로부터 10미터 이내,서울특별시,강남구,지하철역,서울특별시 강남구 금연환경 조성 및 간접흡연 피해방지 조례 제5조,,100000,02-3423-7115,서울특별시 강남구 압구정로 172,서울특별시 강남구 신사동 668,서울특별시 강남구청,37.526127,127.028476,2017-11-17
"세곡동 근린공원1(근린공원)",시설전체,서울특별시,강남구,공원,서울특별시 강남구 금연환경 조성 및 간접흡연 피해방지 조례 제5조,,100000,02-3423-7115,서울특별시 강남구 세곡동 525-1,서울특별시 강남구 세곡동 525-1,서울특별시 강남구청,37.488460,127.035024,2017-11-17
"도곡동 426-9(로덴하우스)(근린공원)",시설전체,서울특별시,강남구,공원,서울특별시 강남구 금연환경 조성 및 간접흡연 피해방지 조례 제5조,,100000,02-3423-7115,서울특별시 강남구 도곡동 462-9,서울특별시 강남구 도곡동 462-9,서울특별시 강남구청,37.501228,127.029923,2017-11-17
